{
	"shelters": [{
		"category": "hinanjo",
		"area": "板橋",
		"name": "板橋第二小学校",
		"address": "板橋2-52-1",
		"call_number": "(3961)0200",
		"capacity": "789",
		"coordinate": {
			"lat": 35.7489777454,
			"lng": 139.7104268428
		}
	}, {
		"category": "hinanjo",
		"area": "板橋",
		"name": "板橋第四小学校",
		"address": "板橋4-9-13",
		"call_number": "(3961)0422",
		"capacity": "947",
		"coordinate": {
			"lat": 35.7498178129,
			"lng": 139.7164585192
		}
	}, {
		"category": "hinanjo",
		"area": "板橋",
		"name": "金沢小学校",
		"address": "加賀2-2-1",
		"call_number": "(3962)2361",
		"capacity": "1389",
		"coordinate": {
			"lat": 35.7549896453,
			"lng": 139.7153395161
		}
	}, {
		"category": "hinanjo",
		"area": "板橋",
		"name": "板橋第一中学校",
		"address": "大山東町50-1",
		"call_number": "(3962)5315",
		"capacity": "1515",
		"coordinate": {
			"lat": 35.7504476484,
			"lng": 139.7047017136
		}
	}, {
		"category": "hinanjo",
		"area": "板橋",
		"name": "板橋第五中学校",
		"address": "板橋4-49-3",
		"call_number": "(3962)7755",
		"capacity": "1，016",
		"coordinate": {
			"lat": 35.7524327135,
			"lng": 139.7195759267
		}
	}, {
		"category": "hinanjo",
		"area": "熊野",
		"name": "板橋第五小学校",
		"address": "中丸町19-1",
		"call_number": "(3956)8124",
		"capacity": "1，036",
		"coordinate": {
			"lat": 35.7417792968,
			"lng": 139.7049364885
		}
	}, {
		"category": "hinanjo",
		"area": "熊野",
		"name": "板橋第七小学校",
		"address": "大山金井町31-1",
		"call_number": "(3956)8114",
		"capacity": "972",
		"coordinate": {
			"lat": 35.745593082,
			"lng": 139.704645248
		}
	}, {
		"category": "hinanjo",
		"area": "仲宿",
		"name": "板橋第一小学校",
		"address": "氷川町13-1",
		"call_number": "(3961)0100",
		"capacity": "2，141",
		"coordinate": {
			"lat": 35.7538055719,
			"lng": 139.7076513275
		}
	}, {
		"category": "hinanjo",
		"area": "仲宿",
		"name": "中根橋小学校",
		"address": "栄町14-1",
		"call_number": "(3962)5511",
		"capacity": "1，126",
		"coordinate": {
			"lat": 35.756124245,
			"lng": 139.7010606821
		}
	}, {
		"category": "hinanjo",
		"area": "仲宿",
		"name": "加賀小学校",
		"address": "稲荷台23-1",
		"call_number": "(3962)6445",
		"capacity": "1，225",
		"coordinate": {
			"lat": 35.7613994518,
			"lng": 139.7101763617
		}
	}, {
		"category": "hinanjo",
		"area": "仲宿",
		"name": "板橋第三中学校",
		"address": "氷川町22-3",
		"call_number": "(3962)8865",
		"capacity": "2，395",
		"coordinate": {
			"lat": 35.7555991326,
			"lng": 139.7070835254
		}
	}, {
		"category": "hinanjo",
		"area": "仲宿",
		"name": "加賀中学校",
		"address": "加賀2-19-1",
		"call_number": "(3962)6331",
		"capacity": "1，416",
		"coordinate": {
			"lat": 35.7606290321,
			"lng": 139.7161381091
		}
	}, {
		"category": "hinanjo",
		"area": "仲町",
		"name": "弥生小学校",
		"address": "弥生町19-1",
		"call_number": "(3965)8116",
		"capacity": "854",
		"coordinate": {
			"lat": 35.7538372148,
			"lng": 139.6944902211
		}
	}, {
		"category": "hinanjo",
		"area": "仲町",
		"name": "板橋第六小学校",
		"address": "大山町13-1",
		"call_number": "(3956)8101",
		"capacity": "1，004",
		"coordinate": {
			"lat": 35.7471234559,
			"lng": 139.7001544562
		}
	}, {
		"category": "hinanjo",
		"area": "仲町",
		"name": "板橋第二中学校",
		"address": "幸町26-1",
		"call_number": "(3956)8121",
		"capacity": "1，295",
		"coordinate": {
			"lat": 35.7459750637,
			"lng": 139.6972891902
		}
	}, {
		"category": "hinanjo",
		"area": "富士見",
		"name": "板橋第八小学校",
		"address": "双葉町42-1",
		"call_number": "(3963)4181",
		"capacity": "897",
		"coordinate": {
			"lat": 35.7598109267,
			"lng": 139.7005228009
		}
	}, {
		"category": "hinanjo",
		"area": "大谷口",
		"name": "板橋第十小学校",
		"address": "大谷口上町43-1",
		"call_number": "(3956)8110",
		"capacity": "1，221",
		"coordinate": {
			"lat": 35.7478885003,
			"lng": 139.692602844
		}
	}, {
		"category": "hinanjo",
		"area": "大谷口",
		"name": "大谷口小学校",
		"address": "大谷口北町21-1",
		"call_number": "(3956)8108",
		"capacity": "1，189",
		"coordinate": {
			"lat": 35.7509423147,
			"lng": 139.6902173675
		}
	}, {
		"category": "hinanjo",
		"area": "大谷口",
		"name": "上板橋第二小学校",
		"address": "小茂根1-14-1",
		"call_number": "(3956)8111",
		"capacity": "1，070",
		"coordinate": {
			"lat": 35.7476668588,
			"lng": 139.6801972393
		}
	}, {
		"category": "hinanjo",
		"area": "大谷口",
		"name": "向原小学校",
		"address": "向原2-34-1",
		"call_number": "(3956)8134",
		"capacity": "1，087",
		"coordinate": {
			"lat": 35.7414116105,
			"lng": 139.6819740078
		}
	}, {
		"category": "hinanjo",
		"area": "大谷口",
		"name": "上板橋第二中学校",
		"address": "小茂根1-2-1",
		"call_number": "(3956)8136",
		"capacity": "1，347",
		"coordinate": {
			"lat": 35.7472384795,
			"lng": 139.6808272031
		}
	}, {
		"category": "hinanjo",
		"area": "桜川|",
		"name": "上板橋小学校",
		"address": "東山町47-3",
		"call_number": "(3972)1661",
		"capacity": "881",
		"coordinate": {
			"lat": 35.7552315049,
			"lng": 139.6863119701
		}
	}, {
		"category": "hinanjo",
		"area": "桜川|",
		"name": "桜川小学校",
		"address": "東新町2-29-1",
		"call_number": "(3956)8106",
		"capacity": "1，368",
		"coordinate": {
			"lat": 35.7551139681,
			"lng": 139.6782448819
		}
	}, {
		"category": "hinanjo",
		"area": "桜川|",
		"name": "桜川中学校",
		"address": "桜川1-2-1",
		"call_number": "(3932)6355",
		"capacity": "1，464",
		"coordinate": {
			"lat": 35.7561182706,
			"lng": 139.6771682661
		}
	}, {
		"category": "hinanjo",
		"area": "常盤台",
		"name": "常盤台小学校",
		"address": "常盤台1-6-1",
		"call_number": "(3969)4601",
		"capacity": "1，215",
		"coordinate": {
			"lat": 35.7595600367,
			"lng": 139.6911591614
		}
	}, {
		"category": "hinanjo",
		"area": "常盤台",
		"name": "上板橋第四小学校",
		"address": "上板橋1-3-1",
		"call_number": "(3932)6317",
		"capacity": "1，212",
		"coordinate": {
			"lat": 35.7614537156,
			"lng": 139.6788645731
		}
	}, {
		"category": "hinanjo",
		"area": "常盤台",
		"name": "上板橋第一中学校",
		"address": "南常盤台1-1-1",
		"call_number": "(3956)8126",
		"capacity": "1，339",
		"coordinate": {
			"lat": 35.7568634542,
			"lng": 139.691264817
		}
	}, {
		"category": "hinanjo",
		"area": "常盤台",
		"name": "上板橋第三中学校",
		"address": "常盤台3-30-1",
		"call_number": "(3960)2312",
		"capacity": "1，125",
		"coordinate": {
			"lat": 35.7635531256,
			"lng": 139.6822464233
		}
	}, {
		"category": "hinanjo",
		"area": "前野",
		"name": "富士見台小学校",
		"address": "前野町1-10-1",
		"call_number": "(3969)8408",
		"capacity": "1，138",
		"coordinate": {
			"lat": 35.7639436543,
			"lng": 139.6952930777
		}
	}, {
		"category": "hinanjo",
		"area": "前野",
		"name": "北前野小学校",
		"address": "前野町5-44-3",
		"call_number": "(3969)8415",
		"capacity": "851",
		"coordinate": {
			"lat": 35.7731245704,
			"lng": 139.6851457901
		}
	}, {
		"category": "hinanjo",
		"area": "前野",
		"name": "前野小学校",
		"address": "前野町6-40-1",
		"call_number": "(3969)4501",
		"capacity": "1，418",
		"coordinate": {
			"lat": 35.7683447278,
			"lng": 139.6875191152
		}
	}, {
		"category": "hinanjo",
		"area": "清水",
		"name": "志村第一小学校",
		"address": "泉町17-1",
		"call_number": "(3960)8561",
		"capacity": "1，050",
		"coordinate": {
			"lat": 35.7663399959,
			"lng": 139.7015013426
		}
	}, {
		"category": "hinanjo",
		"area": "清水",
		"name": "志村第三小学校",
		"address": "清水町83-1",
		"call_number": "(3961)6547",
		"capacity": "1，013",
		"coordinate": {
			"lat": 35.7672395417,
			"lng": 139.7049054617
		}
	}, {
		"category": "hinanjo",
		"area": "清水",
		"name": "志村第一中学校",
		"address": "大原町33-1",
		"call_number": "(3960)8786",
		"capacity": "1，419",
		"coordinate": {
			"lat": 35.7671460038,
			"lng": 139.6969039225
		}
	}, {
		"category": "hinanjo",
		"area": "志村坂上",
		"name": "志村第二小学校",
		"address": "志村1-7-1",
		"call_number": "(3969)8631",
		"capacity": "1，113",
		"coordinate": {
			"lat": 35.7725614178,
			"lng": 139.6977814067
		}
	}, {
		"category": "hinanjo",
		"area": "志村坂上",
		"name": "志村小学校",
		"address": "志村2-16-3",
		"call_number": "(3969)8413",
		"capacity": "1，103",
		"coordinate": {
			"lat": 35.7753145873,
			"lng": 139.6866811267
		}
	}, {
		"category": "hinanjo",
		"area": "志村坂上",
		"name": "志村第四小学校",
		"address": "小豆沢4-13-1",
		"call_number": "(3966)3542",
		"capacity": "1，127",
		"coordinate": {
			"lat": 35.7803455206,
			"lng": 139.7011408064
		}
	}, {
		"category": "hinanjo",
		"area": "志村坂上",
		"name": "志村第二中学校",
		"address": "小豆沢1-21-1",
		"call_number": "(3969)3363",
		"capacity": "1，268",
		"coordinate": {
			"lat": 35.7754874484,
			"lng": 139.7029075198
		}
	}, {
		"category": "hinanjo",
		"area": "志村坂上",
		"name": "志村第四中学校",
		"address": "志村3-15-1",
		"call_number": "(3966)9426",
		"capacity": "1，825",
		"coordinate": {
			"lat": 35.7765143773,
			"lng": 139.683891315
		}
	}, {
		"category": "hinanjo",
		"area": "中台",
		"name": "中台小学校",
		"address": "中台1-9-7",
		"call_number": "(3932)6327",
		"capacity": "1，327",
		"coordinate": {
			"lat": 35.7664096584,
			"lng": 139.6809619725
		}
	}, {
		"category": "hinanjo",
		"area": "中台",
		"name": "緑小学校",
		"address": "中台3-27-1",
		"call_number": "(3937)4581",
		"capacity": "1，148",
		"coordinate": {
			"lat": 35.7724471614,
			"lng": 139.6794918531
		}
	}, {
		"category": "hinanjo",
		"area": "中台",
		"name": "若木小学校",
		"address": "若木1-14-1",
		"call_number": "(3932)6325",
		"capacity": "1，367",
		"coordinate": {
			"lat": 35.7693478445,
			"lng": 139.6753856605
		}
	}, {
		"category": "hinanjo",
		"area": "中台",
		"name": "志村第五小学校",
		"address": "西台3-38-23",
		"call_number": "(3932)6347",
		"capacity": "1，026",
		"coordinate": {
			"lat": 35.7771298944,
			"lng": 139.668497042
		}
	}, {
		"category": "hinanjo",
		"area": "中台",
		"name": "中台中学校",
		"address": "中台1-56-23",
		"call_number": "(3932)6357",
		"capacity": "1，636",
		"coordinate": {
			"lat": 35.7692830936,
			"lng": 139.6802519166
		}
	}, {
		"category": "hinanjo",
		"area": "蓮根",
		"name": "志村坂下小学校",
		"address": "相生町26-14",
		"call_number": "(3932)6365",
		"capacity": "1，279",
		"coordinate": {
			"lat": 35.779077548,
			"lng": 139.6803115153
		}
	}, {
		"category": "hinanjo",
		"area": "蓮根",
		"name": "蓮根小学校",
		"address": "蓮根3-10-1",
		"call_number": "(3969)8401",
		"capacity": "1，526",
		"coordinate": {
			"lat": 35.7877378067,
			"lng": 139.6766070351
		}
	}, {
		"category": "hinanjo",
		"area": "蓮根",
		"name": "蓮根第二小学校",
		"address": "蓮根3-15-5",
		"call_number": "(3967)2282",
		"capacity": "990",
		"coordinate": {
			"lat": 35.7881324618,
			"lng": 139.6778335816
		}
	}, {
		"category": "hinanjo",
		"area": "蓮根",
		"name": "志村第六小学校",
		"address": "坂下2-18-1",
		"call_number": "(3961)4177",
		"capacity": "1，471",
		"coordinate": {
			"lat": 35.7837428084,
			"lng": 139.680605746
		}
	}, {
		"category": "hinanjo",
		"area": "蓮根",
		"name": "志村第三中学校",
		"address": "坂下2-21-1",
		"call_number": "(3966)9176",
		"capacity": "1，775",
		"coordinate": {
			"lat": 35.7838930913,
			"lng": 139.6834943835
		}
	}, {
		"category": "hinanjo",
		"area": "蓮根",
		"name": "志村第五中学校",
		"address": "坂下2-1-20",
		"call_number": "(3969)8421",
		"capacity": "1，099",
		"coordinate": {
			"lat": 35.782375102,
			"lng": 139.6858009157
		}
	}, {
		"category": "hinanjo",
		"area": "舟渡",
		"name": "舟渡小学校",
		"address": "舟渡3-6-15",
		"call_number": "(3969)8405",
		"capacity": "1，223",
		"coordinate": {
			"lat": 35.793602171,
			"lng": 139.6816630349
		}
	}, {
		"category": "hinanjo",
		"area": "下赤塚",
		"name": "下赤塚小学校",
		"address": "赤塚6-14-1",
		"call_number": "(3939)0396",
		"capacity": "1，168",
		"coordinate": {
			"lat": 35.7746006019,
			"lng": 139.6428548779
		}
	}, {
		"category": "hinanjo",
		"area": "下赤塚",
		"name": "赤塚新町小学校",
		"address": "赤塚新町3-31-1",
		"call_number": "(3977)7811",
		"capacity": "1，117",
		"coordinate": {
			"lat": 35.7692632378,
			"lng": 139.6358701314
		}
	}, {
		"category": "hinanjo",
		"area": "下赤塚",
		"name": "赤塚第三中学校",
		"address": "赤塚7-27-15",
		"call_number": "(3930)3535",
		"capacity": "1，807",
		"coordinate": {
			"lat": 35.7797406107,
			"lng": 139.6481875505
		}
	}, {
		"category": "hinanjo",
		"area": "成増",
		"name": "成増小学校",
		"address": "成増1-11-1",
		"call_number": "(3930)0172",
		"capacity": "1，357",
		"coordinate": {
			"lat": 35.7743425797,
			"lng": 139.632663532
		}
	}, {
		"category": "hinanjo",
		"area": "成増",
		"name": "成増ヶ丘小学校",
		"address": "成増3-17-7",
		"call_number": "(3930)2070",
		"capacity": "1，445",
		"coordinate": {
			"lat": 35.7809552137,
			"lng": 139.6343564543
		}
	}, {
		"category": "hinanjo",
		"area": "成増",
		"name": "赤塚小学校",
		"address": "赤塚3-1-22",
		"call_number": "(3939)0047",
		"capacity": "1，160",
		"coordinate": {
			"lat": 35.7779308334,
			"lng": 139.6406116006
		}
	}, {
		"category": "hinanjo",
		"area": "成増",
		"name": "三園小学校",
		"address": "三園1-24-1",
		"call_number": "(3930)8934",
		"capacity": "1，222",
		"coordinate": {
			"lat": 35.7904093452,
			"lng": 139.6375324689
		}
	}, {
		"category": "hinanjo",
		"area": "成増",
		"name": "赤塚第二中学校",
		"address": "成増3-18-1",
		"call_number": "(3939)0247",
		"capacity": "2，199",
		"coordinate": {
			"lat": 35.7805294461,
			"lng": 139.6329454803
		}
	}, {
		"category": "hinanjo",
		"area": "徳丸",
		"name": "徳丸小学校",
		"address": "徳丸1-21-1",
		"call_number": "(3934)1888",
		"capacity": "1，322",
		"coordinate": {
			"lat": 35.7717491165,
			"lng": 139.6666196412
		}
	}, {
		"category": "hinanjo",
		"area": "徳丸",
		"name": "北野小学校",
		"address": "徳丸3-23-1",
		"call_number": "(3933)6151",
		"capacity": "1，602",
		"coordinate": {
			"lat": 35.771609321,
			"lng": 139.6570960113
		}
	}, {
		"category": "hinanjo",
		"area": "徳丸",
		"name": "紅梅小学校",
		"address": "徳丸8-10-1",
		"call_number": "(3932)6368",
		"capacity": "1，444",
		"coordinate": {
			"lat": 35.7812340235,
			"lng": 139.657412262
		}
	}, {
		"category": "hinanjo",
		"area": "徳丸",
		"name": "赤塚第一中学校",
		"address": "徳丸4-13-1",
		"call_number": "(3932)5314",
		"capacity": "1，976",
		"coordinate": {
			"lat": 35.7716882862,
			"lng": 139.6519897751
		}
	}, {
		"category": "hinanjo",
		"area": "高島平",
		"name": "高島第六小学校",
		"address": "高島平1-50-1",
		"call_number": "(3935)2550",
		"capacity": "1，412",
		"coordinate": {
			"lat": 35.7843362441,
			"lng": 139.6703599256
		}
	}, {
		"category": "hinanjo",
		"area": "高島平",
		"name": "高島第二小学校",
		"address": "高島平2-25-1",
		"call_number": "(3936)1561",
		"capacity": "1，363",
		"coordinate": {
			"lat": 35.7850043808,
			"lng": 139.6617028561
		}
	}, {
		"category": "hinanjo",
		"area": "高島平",
		"name": "高島第五小学校",
		"address": "高島平3-11-1",
		"call_number": "(3975)6823",
		"capacity": "945",
		"coordinate": {
			"lat": 35.786795376,
			"lng": 139.6569390694
		}
	}, {
		"category": "hinanjo",
		"area": "高島平",
		"name": "高島第三小学校",
		"address": "高島平4-21-1",
		"call_number": "(3938)5173",
		"capacity": "1，223",
		"coordinate": {
			"lat": 35.7889085137,
			"lng": 139.64992481
		}
	}, {
		"category": "hinanjo",
		"area": "高島平",
		"name": "高島第一小学校",
		"address": "高島平7-24-1",
		"call_number": "(3939)2091",
		"capacity": "1，208",
		"coordinate": {
			"lat": 35.7919093306,
			"lng": 139.6598294026
		}
	}, {
		"category": "hinanjo",
		"area": "高島平",
		"name": "新河岸小学校",
		"address": "新河岸1-3-1",
		"call_number": "(3936)8530",
		"capacity": "1，319",
		"coordinate": {
			"lat": 35.7937999248,
			"lng": 139.6650588818
		}
	}, {
		"category": "hinanjo",
		"area": "高島平",
		"name": "西台中学校",
		"address": "高島平1-4-1",
		"call_number": "(3934)4501",
		"capacity": "1，642",
		"coordinate": {
			"lat": 35.7820227619,
			"lng": 139.6716632418
		}
	}, {
		"category": "hinanjo",
		"area": "高島平",
		"name": "高島第二中学校",
		"address": "高島平2-24-1",
		"call_number": "(3936)1591",
		"capacity": "1，536",
		"coordinate": {
			"lat": 35.785320753,
			"lng": 139.6603407368
		}
	}, {
		"category": "hinanjo",
		"area": "高島平",
		"name": "高島第三中学校",
		"address": "高島平4-22-1",
		"call_number": "(3938)2523",
		"capacity": "1，396",
		"coordinate": {
			"lat": 35.7882677284,
			"lng": 139.6510947365
		}
	}, {
		"category": "hinanjo",
		"area": "高島平",
		"name": "高島第一中学校",
		"address": "高島平8-26-1",
		"call_number": "(3936)1171",
		"capacity": "1，330",
		"coordinate": {
			"lat": 35.791893418,
			"lng": 139.6630169102
		}
	}, {
		"category": "hinanjo",
		"area": "富士見",
		"name": "旧板橋第四中学校",
		"address": "富士見町3-1",
		"call_number": null,
		"capacity": null,
		"coordinate": {
			"lat": 35.7607366956,
			"lng": 139.7014078504
		}
	}, {
		"category": "hinanjo",
		"area": "仲宿",
		"name": "旧板橋第九小学校",
		"address": "栄町6-1",
		"call_number": "(3962)3181",
		"capacity": "1，097",
		"coordinate": {
			"lat": 35.7546711609,
			"lng": 139.7042504701
		}
	}, {
		"category": "hinanjo",
		"area": "前野",
		"name": "総合ケアセンター若葉ゆめの園",
		"address": "若木3-15-1",
		"call_number": "03-3935-5780",
		"capacity": null,
		"coordinate": {
			"lat": 35.7720438943,
			"lng": 139.6742248879
		}
	}]
}