{
	"shelters": [{
		"name": "板橋第二小学校",
		"address": "板橋2-52-1",
		"call_number": "03-3961-0200",
		"capacity": 789,
		"geo": {
			"coordinate": {
				"lng": 139.7104614,
				"lat": 35.74868379999999
			},
			"formatted_address": "日本、〒173-0004 東京都板橋区板橋２丁目５２−１",
			"place_id": "ChIJrcHdnr2SGGARL6SwMAFJ-78",
			"plus_code": {
				"compound_code": "PPX6+F5 日本、東京都板橋区",
				"global_code": "8Q7XPPX6+F5"
			}
		},
		"related_page": ""
	}, {
		"name": "板橋第四小学校",
		"address": "板橋4-9-13",
		"call_number": "03-3961-0422",
		"capacity": 947,
		"geo": {
			"coordinate": {
				"lng": 139.7163503,
				"lat": 35.74994119999999
			},
			"formatted_address": "日本、〒173-0004 東京都板橋区板橋４丁目９−１３",
			"place_id": "ChIJEwGHSpeSGGAR-vs82WSTfFQ",
			"plus_code": {
				"compound_code": "PPX8+XG 日本、東京都板橋区",
				"global_code": "8Q7XPPX8+XG"
			}
		},
		"related_page": ""
	}, {
		"name": "金沢小学校",
		"address": "加賀2-2-1",
		"call_number": "03-3962-2361",
		"capacity": 1389,
		"geo": {
			"coordinate": {
				"lng": 139.7152391,
				"lat": 35.7553715
			},
			"formatted_address": "日本、〒173-0003 東京都板橋区加賀２丁目２−１",
			"place_id": "ChIJF82e85SSGGARCLKN_7lABjs",
			"plus_code": {
				"compound_code": "QP48+43 日本、東京都板橋区",
				"global_code": "8Q7XQP48+43"
			}
		},
		"related_page": ""
	}, {
		"name": "板橋第一中学校",
		"address": "大山東町50-1",
		"call_number": "03-3962-5315",
		"capacity": 1515,
		"geo": {
			"coordinate": {
				"lng": 139.7049779,
				"lat": 35.7504952
			},
			"formatted_address": "日本、〒173-0014 東京都板橋区大山東町５０−１",
			"place_id": "ChIJs5fqHLmSGGAR67oJK6-jrfE",
			"plus_code": {
				"compound_code": "QP23+5X 日本、東京都板橋区",
				"global_code": "8Q7XQP23+5X"
			}
		},
		"related_page": ""
	}, {
		"name": "板橋第五中学校",
		"address": "板橋4-49-3",
		"call_number": "03-3962-7755",
		"capacity": 1016,
		"geo": {
			"coordinate": {
				"lng": 139.7196126,
				"lat": 35.7524138
			},
			"formatted_address": "日本、〒173-0004 東京都板橋区板橋４丁目４９−３",
			"place_id": "ChIJvbFUqZGSGGARuHx5i-Mqwho",
			"plus_code": {
				"compound_code": "QP29+XR 日本、東京都板橋区",
				"global_code": "8Q7XQP29+XR"
			}
		},
		"related_page": ""
	}, {
		"name": "板橋第五小学校",
		"address": "中丸町19-1",
		"call_number": "03-3956-8124",
		"capacity": 1036,
		"geo": {
			"coordinate": {
				"lng": 139.7047798,
				"lat": 35.7416006
			},
			"formatted_address": "日本、〒173-0026 東京都板橋区中丸町１９−１",
			"place_id": "ChIJL8ADYKSSGGARGbrI1hfduwc",
			"plus_code": {
				"compound_code": "PPR3+JW 日本、東京都板橋区",
				"global_code": "8Q7XPPR3+JW"
			}
		},
		"related_page": ""
	}, {
		"name": "板橋第七小学校",
		"address": "大山金井町31-1",
		"call_number": "03-3956-8114",
		"capacity": 972,
		"geo": {
			"coordinate": {
				"lng": 139.7046232,
				"lat": 35.7455224
			},
			"formatted_address": "日本、〒173-0024 東京都板橋区大山金井町３１−１",
			"place_id": "ChIJq4L4ELuSGGARBzx5MgN_5ng",
			"plus_code": {
				"compound_code": "PPW3+6R 日本、東京都板橋区",
				"global_code": "8Q7XPPW3+6R"
			}
		},
		"related_page": ""
	}, {
		"name": "板橋第一小学校",
		"address": "氷川町13-1",
		"call_number": "03-3961-0100",
		"capacity": 2141,
		"geo": {
			"coordinate": {
				"lng": 139.707651,
				"lat": 35.7538045
			},
			"formatted_address": "日本、〒173-0013 東京都板橋区氷川町１３−１",
			"place_id": "ChIJbYWLZ7-SGGARUMErkp9aLK4",
			"plus_code": {
				"compound_code": "QP35+G3 日本、東京都板橋区",
				"global_code": "8Q7XQP35+G3"
			}
		},
		"related_page": ""
	}, {
		"name": "中根橋小学校",
		"address": "栄町14-1",
		"call_number": "03-3962-5511",
		"capacity": 1126,
		"geo": {
			"coordinate": {
				"lng": 139.7008862,
				"lat": 35.7559396
			},
			"formatted_address": "日本、〒173-0015 東京都板橋区栄町１４−１",
			"place_id": "ChIJwStfqsiSGGARHpgpJft-YBM",
			"plus_code": {
				"compound_code": "QP42+99 日本、東京都板橋区",
				"global_code": "8Q7XQP42+99"
			}
		},
		"related_page": ""
	}, {
		"name": "加賀小学校",
		"address": "稲荷台23-1",
		"call_number": "03-3962-6445",
		"capacity": 1225,
		"geo": {
			"coordinate": {
				"lng": 139.7101113,
				"lat": 35.7616336
			},
			"formatted_address": "日本、〒173-0002 東京都板橋区稲荷台２３−１",
			"place_id": "ChIJv6zea8KSGGARvgiT51NwFB4",
			"plus_code": {
				"compound_code": "QP66+M2 日本、東京都板橋区",
				"global_code": "8Q7XQP66+M2"
			}
		},
		"related_page": ""
	}, {
		"name": "板橋第三中学校",
		"address": "氷川町22-3",
		"call_number": "03-3962-8865",
		"capacity": 2395,
		"geo": {
			"coordinate": {
				"lng": 139.7071294,
				"lat": 35.7554924
			},
			"formatted_address": "日本、〒173-0013 東京都板橋区氷川町２２−３",
			"place_id": "ChIJyd6ZNseSGGAR4EAfdtCKKYY",
			"plus_code": {
				"compound_code": "QP44+5V 日本、東京都板橋区",
				"global_code": "8Q7XQP44+5V"
			}
		},
		"related_page": ""
	}, {
		"name": "加賀中学校",
		"address": "加賀2-19-1",
		"call_number": "03-3962-6331",
		"capacity": 1416,
		"geo": {
			"coordinate": {
				"lng": 139.7160795,
				"lat": 35.7606741
			},
			"formatted_address": "日本、〒173-0003 東京都板橋区加賀２丁目１９−１",
			"place_id": "ChIJy8rQYuuSGGARnYCcpr48jDU",
			"plus_code": {
				"compound_code": "QP68+7C 日本、東京都板橋区",
				"global_code": "8Q7XQP68+7C"
			}
		},
		"related_page": ""
	}, {
		"name": "弥生小学校",
		"address": "弥生町19-1",
		"call_number": "03-3965-8116",
		"capacity": 854,
		"geo": {
			"coordinate": {
				"lng": 139.6943064,
				"lat": 35.7535552
			},
			"formatted_address": "日本、〒173-0021 東京都板橋区弥生町１９−１",
			"place_id": "ChIJ-dTadcySGGARm2kmc4q7kGM",
			"plus_code": {
				"compound_code": "QM3V+CP 日本、東京都板橋区",
				"global_code": "8Q7XQM3V+CP"
			}
		},
		"related_page": ""
	}, {
		"name": "板橋第六小学校",
		"address": "大山町13-1",
		"call_number": "03-3956-8101",
		"capacity": 1004,
		"geo": {
			"coordinate": {
				"lng": 139.7000519,
				"lat": 35.747104
			},
			"formatted_address": "日本、〒173-0023 東京都板橋区大山町１３−１",
			"place_id": "ChIJzY9ZSLeSGGARM5s1TDEtHHI",
			"plus_code": {
				"compound_code": "PPW2+R2 日本、東京都板橋区",
				"global_code": "8Q7XPPW2+R2"
			}
		},
		"related_page": ""
	}, {
		"name": "板橋第二中学校",
		"address": "幸町26-1",
		"call_number": "03-3956-8121",
		"capacity": 1295,
		"geo": {
			"coordinate": {
				"lng": 139.6973552,
				"lat": 35.7459835
			},
			"formatted_address": "日本、〒173-0034 東京都板橋区幸町２６−１",
			"place_id": "ChIJ52xJsbaSGGARnTJGmb79Smk",
			"plus_code": {
				"compound_code": "PMWW+9W 日本、東京都板橋区",
				"global_code": "8Q7XPMWW+9W"
			}
		},
		"related_page": ""
	}, {
		"name": "板橋第八小学校",
		"address": "双葉町42-1",
		"call_number": "03-3963-4181",
		"capacity": 897,
		"geo": {
			"coordinate": {
				"lng": 139.6999997,
				"lat": 35.7594234
			},
			"formatted_address": "日本、〒173-0011 東京都板橋区双葉町４２−１",
			"place_id": "ChIJjQmWwc-SGGARyFmckFIVGXA",
			"plus_code": {
				"compound_code": "QM5X+QX 日本、東京都板橋区",
				"global_code": "8Q7XQM5X+QX"
			}
		},
		"related_page": ""
	}, {
		"name": "板橋第十小学校",
		"address": "大谷口上町43-1",
		"call_number": "03-3956-8110",
		"capacity": 1221,
		"geo": {
			"coordinate": {
				"lng": 139.6925474,
				"lat": 35.7474574
			},
			"formatted_address": "日本、〒173-0032 東京都板橋区大谷口上町４３−１",
			"place_id": "ChIJEzlZaLWSGGAR5RiV50OOl9I",
			"plus_code": {
				"compound_code": "PMWV+X2 日本、東京都板橋区",
				"global_code": "8Q7XPMWV+X2"
			}
		},
		"related_page": ""
	}, {
		"name": "大谷口小学校",
		"address": "大谷口北町21-1",
		"call_number": "03-3956-8108",
		"capacity": 1189,
		"geo": {
			"coordinate": {
				"lng": 139.6900055,
				"lat": 35.7507227
			},
			"formatted_address": "日本、〒173-0031 東京都板橋区大谷口北町２１−１",
			"place_id": "ChIJR1yqvzTtGGAR0nAT0FJwJDY",
			"plus_code": {
				"compound_code": "QM2R+72 日本、東京都板橋区",
				"global_code": "8Q7XQM2R+72"
			}
		},
		"related_page": ""
	}, {
		"name": "上板橋第二小学校",
		"address": "小茂根1-14-1",
		"call_number": "03-3956-8111",
		"capacity": 1070,
		"geo": {
			"coordinate": {
				"lng": 139.6798336,
				"lat": 35.747427
			},
			"formatted_address": "日本、〒173-0037 東京都板橋区小茂根１丁目１４−１",
			"place_id": "ChIJs2D_9jntGGARFjfOxLiPGa4",
			"plus_code": {
				"compound_code": "PMWH+XW 日本、東京都板橋区",
				"global_code": "8Q7XPMWH+XW"
			}
		},
		"related_page": ""
	}, {
		"name": "向原小学校",
		"address": "向原2-34-1",
		"call_number": "03-3956-8134",
		"capacity": 1087,
		"geo": {
			"coordinate": {
				"lng": 139.6823694,
				"lat": 35.7415566
			},
			"formatted_address": "日本、〒173-0036 東京都板橋区向原２丁目３４−１",
			"place_id": "ChIJZ-rti0jtGGARO2sMv3uw_Rs",
			"plus_code": {
				"compound_code": "PMRJ+JW 日本、東京都板橋区",
				"global_code": "8Q7XPMRJ+JW"
			}
		},
		"related_page": ""
	}, {
		"name": "上板橋第二中学校",
		"address": "小茂根1-2-1",
		"call_number": "03-3956-8136",
		"capacity": 1347,
		"geo": {
			"coordinate": {
				"lng": 139.6808533,
				"lat": 35.7472853
			},
			"formatted_address": "日本、〒173-0037 東京都板橋区小茂根１丁目２−１",
			"place_id": "ChIJXbIJWDftGGARIk6m3m8UJA0",
			"plus_code": {
				"compound_code": "PMWJ+W8 日本、東京都板橋区",
				"global_code": "8Q7XPMWJ+W8"
			}
		},
		"related_page": ""
	}, {
		"name": "上板橋小学校",
		"address": "東山町47-3",
		"call_number": "03-3972-1661",
		"capacity": 881,
		"geo": {
			"coordinate": {
				"lng": 139.6862839,
				"lat": 35.7550512
			},
			"formatted_address": "日本、〒174-0073 東京都板橋区東山町４７−３",
			"place_id": "ChIJrTPyBTLtGGARTYngrM7SMt0",
			"plus_code": {
				"compound_code": "QM4P+2G 日本、東京都板橋区",
				"global_code": "8Q7XQM4P+2G"
			}
		},
		"related_page": ""
	}, {
		"name": "桜川小学校",
		"address": "東新町2-29-1",
		"call_number": "03-3956-8106",
		"capacity": 1368,
		"geo": {
			"coordinate": {
				"lng": 139.6781669,
				"lat": 35.7549148
			},
			"formatted_address": "日本、〒174-0074 東京都板橋区東新町２丁目２９−１",
			"place_id": "ChIJY1NjHCXtGGAR0ELQng97Yds",
			"plus_code": {
				"compound_code": "QM3H+X7 日本、東京都板橋区",
				"global_code": "8Q7XQM3H+X7"
			}
		},
		"related_page": ""
	}, {
		"name": "桜川中学校",
		"address": "桜川1-2-1",
		"call_number": "03-3932-6355",
		"capacity": 1464,
		"geo": {
			"coordinate": {
				"lng": 139.6768903,
				"lat": 35.7562149
			},
			"formatted_address": "日本、〒174-0075 東京都板橋区桜川１丁目２−１",
			"place_id": "ChIJcwUqnybtGGARdzvTRKNt-LQ",
			"plus_code": {
				"compound_code": "QM4G+FQ 日本、東京都板橋区",
				"global_code": "8Q7XQM4G+FQ"
			}
		},
		"related_page": ""
	}, {
		"name": "常盤台小学校",
		"address": "常盤台1-6-1",
		"call_number": "03-3969-4601",
		"capacity": 1215,
		"geo": {
			"coordinate": {
				"lng": 139.6910931,
				"lat": 35.7593695
			},
			"formatted_address": "日本、〒174-0071 東京都板橋区常盤台１丁目６−１",
			"place_id": "ChIJk4bQLNOSGGARiMMLWoDAO4w",
			"plus_code": {
				"compound_code": "QM5R+PC 日本、東京都板橋区",
				"global_code": "8Q7XQM5R+PC"
			}
		},
		"related_page": ""
	}, {
		"name": "上板橋第四小学校",
		"address": "上板橋1-3-1",
		"call_number": "03-3932-6317",
		"capacity": 1212,
		"geo": {
			"coordinate": {
				"lng": 139.6786133,
				"lat": 35.7614386
			},
			"formatted_address": "日本、〒174-0076 東京都板橋区上板橋１丁目３−１",
			"place_id": "ChIJIf1-e9jsGGARpjRYApT1lms",
			"plus_code": {
				"compound_code": "QM6H+HC 日本、東京都板橋区",
				"global_code": "8Q7XQM6H+HC"
			}
		},
		"related_page": ""
	}, {
		"name": "上板橋第一中学校",
		"address": "南常盤台1-1-1",
		"call_number": "03-3956-8126",
		"capacity": 1339,
		"geo": {
			"coordinate": {
				"lng": 139.6912503,
				"lat": 35.7568805
			},
			"formatted_address": "日本、〒174-0072 東京都板橋区南常盤台１丁目１−１",
			"place_id": "ChIJZfeeqjLtGGARdrZ5eB6osLA",
			"plus_code": {
				"compound_code": "QM4R+QG 日本、東京都板橋区",
				"global_code": "8Q7XQM4R+QG"
			}
		},
		"related_page": ""
	}, {
		"name": "上板橋第三中学校",
		"address": "常盤台3-30-1",
		"call_number": "03-3960-2312",
		"capacity": 1125,
		"geo": {
			"coordinate": {
				"lng": 139.6822341,
				"lat": 35.7634396
			},
			"formatted_address": "日本、〒174-0071 東京都板橋区常盤台３丁目３０−１",
			"place_id": "ChIJOcIIv9fsGGAR7jHGUXGIDcI",
			"plus_code": {
				"compound_code": "QM7J+9V 日本、東京都板橋区",
				"global_code": "8Q7XQM7J+9V"
			}
		},
		"related_page": ""
	}, {
		"name": "富士見台小学校",
		"address": "前野町1-10-1",
		"call_number": "03-3969-8408",
		"capacity": 1138,
		"geo": {
			"coordinate": {
				"lng": 139.6952262,
				"lat": 35.7639261
			},
			"formatted_address": "日本、〒174-0063 東京都板橋区前野町１丁目１０−１",
			"place_id": "ChIJjQPVFtSSGGARX7P1hunl8Kw",
			"plus_code": {
				"compound_code": "QM7W+H3 日本、東京都板橋区",
				"global_code": "8Q7XQM7W+H3"
			}
		},
		"related_page": ""
	}, {
		"name": "北前野小学校",
		"address": "前野町5-44-3",
		"call_number": "03-3969-8415",
		"capacity": 851,
		"geo": {
			"coordinate": {
				"lng": 139.6851277,
				"lat": 35.7731387
			},
			"formatted_address": "日本、〒174-0063 東京都板橋区前野町５丁目４４−３",
			"place_id": "ChIJOecNG87sGGARz2NP0YSIGsM",
			"plus_code": {
				"compound_code": "QMFP+73 日本、東京都板橋区",
				"global_code": "8Q7XQMFP+73"
			}
		},
		"related_page": ""
	}, {
		"name": "前野小学校",
		"address": "前野町6-40-1",
		"call_number": "03-3969-4501",
		"capacity": 1418,
		"geo": {
			"coordinate": {
				"lng": 139.6874748,
				"lat": 35.768325
			},
			"formatted_address": "日本、〒174-0063 東京都板橋区前野町６丁目４０−１",
			"place_id": "ChIJBa3abtTsGGARGt7D4Ccdcv8",
			"plus_code": {
				"compound_code": "QM9P+8X 日本、東京都板橋区",
				"global_code": "8Q7XQM9P+8X"
			}
		},
		"related_page": ""
	}, {
		"name": "志村第一小学校",
		"address": "泉町17-1",
		"call_number": "03-3960-8561",
		"capacity": 1050,
		"geo": {
			"coordinate": {
				"lng": 139.7015187,
				"lat": 35.7663208
			},
			"formatted_address": "日本、〒174-0055 東京都板橋区泉町１７−１",
			"place_id": "ChIJiRIHX9eSGGAR_TzGK0zuDY0",
			"plus_code": {
				"compound_code": "QP82+GJ 日本、東京都板橋区",
				"global_code": "8Q7XQP82+GJ"
			}
		},
		"related_page": ""
	}, {
		"name": "志村第三小学校",
		"address": "清水町83-1",
		"call_number": "03-3961-6547",
		"capacity": 1013,
		"geo": {
			"coordinate": {
				"lng": 139.7049873,
				"lat": 35.7670845
			},
			"formatted_address": "日本、〒174-0053 東京都板橋区清水町８３−１",
			"place_id": "ChIJfzqlYNmSGGARcp5OsaTgLrI",
			"plus_code": {
				"compound_code": "QP83+RX 日本、東京都板橋区",
				"global_code": "8Q7XQP83+RX"
			}
		},
		"related_page": ""
	}, {
		"name": "志村第一中学校",
		"address": "大原町33-1",
		"call_number": "03-3960-8786",
		"capacity": 1419,
		"geo": {
			"coordinate": {
				"lng": 139.6970157,
				"lat": 35.7671394
			},
			"formatted_address": "日本、〒174-0061 東京都板橋区大原町３３−１",
			"place_id": "ChIJITUtE9aSGGARG3ccWdzn83s",
			"plus_code": {
				"compound_code": "QM8W+VR 日本、東京都板橋区",
				"global_code": "8Q7XQM8W+VR"
			}
		},
		"related_page": ""
	}, {
		"name": "志村第二小学校",
		"address": "志村1-7-1",
		"call_number": "03-3969-8631",
		"capacity": 1113,
		"geo": {
			"coordinate": {
				"lng": 139.6977545,
				"lat": 35.7725582
			},
			"formatted_address": "日本、〒174-0056 東京都板橋区志村１丁目７−１",
			"place_id": "ChIJ2zJZOCmTGGARNJ6Vda5IGHc",
			"plus_code": {
				"compound_code": "QMFX+24 日本、東京都板橋区",
				"global_code": "8Q7XQMFX+24"
			}
		},
		"related_page": ""
	}, {
		"name": "志村小学校",
		"address": "志村2-16-3",
		"call_number": "03-3969-8413",
		"capacity": 1103,
		"geo": {
			"coordinate": {
				"lng": 139.6864438,
				"lat": 35.7752411
			},
			"formatted_address": "日本、〒174-0056 東京都板橋区志村２丁目１６−３",
			"place_id": "ChIJTciV0c3sGGARwRIA73hg8tE",
			"plus_code": {
				"compound_code": "QMGP+3H 日本、東京都板橋区",
				"global_code": "8Q7XQMGP+3H"
			}
		},
		"related_page": ""
	}, {
		"name": "志村第四小学校",
		"address": "小豆沢4-13-1",
		"call_number": "03-3966-3542",
		"capacity": 1127,
		"geo": {
			"coordinate": {
				"lng": 139.701063,
				"lat": 35.7801821
			},
			"formatted_address": "日本、〒174-0051 東京都板橋区小豆沢４丁目１３−１",
			"place_id": "ChIJUQUhoDqTGGAR3k965nVxYbc",
			"plus_code": {
				"compound_code": "QPJ2+3C 日本、東京都板橋区",
				"global_code": "8Q7XQPJ2+3C"
			}
		},
		"related_page": ""
	}, {
		"name": "志村第二中学校",
		"address": "小豆沢1-21-1",
		"call_number": "03-3969-3363",
		"capacity": 1268,
		"geo": {
			"coordinate": {
				"lng": 139.7029099,
				"lat": 35.7754835
			},
			"formatted_address": "日本、〒174-0051 東京都板橋区小豆沢１丁目２１−１",
			"place_id": "ChIJmWzS3iWTGGAR5b0E5PKDMcQ",
			"plus_code": {
				"compound_code": "QPG3+55 日本、東京都板橋区",
				"global_code": "8Q7XQPG3+55"
			}
		},
		"related_page": ""
	}, {
		"name": "志村第四中学校",
		"address": "志村3-15-1",
		"call_number": "03-3966-9426",
		"capacity": 1825,
		"geo": {
			"coordinate": {
				"lng": 139.6840075,
				"lat": 35.7765573
			},
			"formatted_address": "日本、〒174-0056 東京都板橋区志村３丁目１５−１",
			"place_id": "ChIJMSzN0c7sGGARdhjuSdZ6Sik",
			"plus_code": {
				"compound_code": "QMGM+JJ 日本、東京都板橋区",
				"global_code": "8Q7XQMGM+JJ"
			}
		},
		"related_page": ""
	}, {
		"name": "中台小学校",
		"address": "中台1-9-7",
		"call_number": "03-3932-6327",
		"capacity": 1327,
		"geo": {
			"coordinate": {
				"lng": 139.681576,
				"lat": 35.7661206
			},
			"formatted_address": "日本、〒174-0064 東京都板橋区中台１丁目９−７",
			"place_id": "ChIJ_xbKWNfsGGARD6wQUqSSmwI",
			"plus_code": {
				"compound_code": "QM8J+CJ 日本、東京都板橋区",
				"global_code": "8Q7XQM8J+CJ"
			}
		},
		"related_page": ""
	}, {
		"name": "緑小学校",
		"address": "中台3-27-1",
		"call_number": "03-3937-4581",
		"capacity": 1148,
		"geo": {
			"coordinate": {
				"lng": 139.6792716,
				"lat": 35.7725035
			},
			"formatted_address": "日本、〒174-0064 東京都板橋区中台３丁目２７−１",
			"place_id": "ChIJ0-AAC8XsGGAR_q9Z0-7ndjc",
			"plus_code": {
				"compound_code": "QMFH+2P 日本、東京都板橋区",
				"global_code": "8Q7XQMFH+2P"
			}
		},
		"related_page": ""
	}, {
		"name": "若木小学校",
		"address": "若木1-14-1",
		"call_number": "03-3932-6325",
		"capacity": 1367,
		"geo": {
			"coordinate": {
				"lng": 139.6752139,
				"lat": 35.7691533
			},
			"formatted_address": "日本、〒174-0065 東京都板橋区若木１丁目１４−１",
			"place_id": "ChIJswSWUMPsGGARJL6jSOzqGsM",
			"plus_code": {
				"compound_code": "QM9G+M3 日本、東京都板橋区",
				"global_code": "8Q7XQM9G+M3"
			}
		},
		"related_page": ""
	}, {
		"name": "志村第五小学校",
		"address": "西台3-38-23",
		"call_number": "03-3932-6347",
		"capacity": 1026,
		"geo": {
			"coordinate": {
				"lng": 139.6684929,
				"lat": 35.7770258
			},
			"formatted_address": "日本、〒175-0045 東京都板橋区西台３丁目３８−２３",
			"place_id": "ChIJ-7lTA5XsGGARxIeMgdskz1c",
			"plus_code": {
				"compound_code": "QMG9+R9 日本、東京都板橋区",
				"global_code": "8Q7XQMG9+R9"
			}
		},
		"related_page": ""
	}, {
		"name": "中台中学校",
		"address": "中台1-56-23",
		"call_number": "03-3932-6357",
		"capacity": 1636,
		"geo": {
			"coordinate": {
				"lng": 139.6802585,
				"lat": 35.7692044
			},
			"formatted_address": "日本、〒174-0064 東京都板橋区中台１丁目５６−２３",
			"place_id": "ChIJDQjykNrsGGARxAuUkXV5B1g",
			"plus_code": {
				"compound_code": "QM9J+M4 日本、東京都板橋区",
				"global_code": "8Q7XQM9J+M4"
			}
		},
		"related_page": ""
	}, {
		"name": "志村坂下小学校",
		"address": "相生町26-14",
		"call_number": "03-3932-6365",
		"capacity": 1279,
		"geo": {
			"coordinate": {
				"lng": 139.6803122,
				"lat": 35.7790757
			},
			"formatted_address": "日本、〒174-0044 東京都板橋区相生町２６−１４",
			"place_id": "ChIJzSzl6MfsGGARCwQW0G4HHus",
			"plus_code": {
				"compound_code": "QMHJ+J4 日本、東京都板橋区",
				"global_code": "8Q7XQMHJ+J4"
			}
		},
		"related_page": ""
	}, {
		"name": "蓮根小学校",
		"address": "蓮根3-10-1",
		"call_number": "03-3969-8401",
		"capacity": 1526,
		"geo": {
			"coordinate": {
				"lng": 139.6759443,
				"lat": 35.7876102
			},
			"formatted_address": "日本、〒174-0046 東京都板橋区蓮根３丁目１０−１",
			"place_id": "ChIJPfnRraTsGGARHkOn-S1l4fc",
			"plus_code": {
				"compound_code": "QMQG+29 日本、東京都板橋区",
				"global_code": "8Q7XQMQG+29"
			}
		},
		"related_page": ""
	}, {
		"name": "蓮根第二小学校",
		"address": "蓮根3-15-5",
		"call_number": "03-3967-2282",
		"capacity": 990,
		"geo": {
			"coordinate": {
				"lng": 139.6778321,
				"lat": 35.7881093
			},
			"formatted_address": "日本、〒174-0046 東京都板橋区蓮根３丁目１５−５",
			"place_id": "ChIJw43f0qTsGGARiOUkGHTUQ88",
			"plus_code": {
				"compound_code": "QMQH+64 日本、東京都板橋区",
				"global_code": "8Q7XQMQH+64"
			}
		},
		"related_page": ""
	}, {
		"name": "志村第六小学校",
		"address": "坂下2-18-1",
		"call_number": "03-3961-4177",
		"capacity": 1471,
		"geo": {
			"coordinate": {
				"lng": 139.6809612,
				"lat": 35.783306
			},
			"formatted_address": "日本、〒174-0043 東京都板橋区坂下２丁目１８−１",
			"place_id": "ChIJq4IA07nsGGARu_K484egOss",
			"plus_code": {
				"compound_code": "QMMJ+89 日本、東京都板橋区",
				"global_code": "8Q7XQMMJ+89"
			}
		},
		"related_page": ""
	}, {
		"name": "志村第三中学校",
		"address": "坂下2-21-1",
		"call_number": "03-3966-9176",
		"capacity": 1775,
		"geo": {
			"coordinate": {
				"lng": 139.683611,
				"lat": 35.7834908
			},
			"formatted_address": "日本、〒174-0043 東京都板橋区坂下２丁目２１−１",
			"place_id": "ChIJwcdQA7fsGGARxe7s7Q-c_Rw",
			"plus_code": {
				"compound_code": "QMMM+9C 日本、東京都板橋区",
				"global_code": "8Q7XQMMM+9C"
			}
		},
		"related_page": ""
	}, {
		"name": "志村第五中学校",
		"address": "坂下2-1-20",
		"call_number": "03-3969-8421",
		"capacity": 1099,
		"geo": {
			"coordinate": {
				"lng": 139.6857845,
				"lat": 35.7823797
			},
			"formatted_address": "日本、〒174-0043 東京都板橋区坂下２丁目１−２０",
			"place_id": "ChIJhRKQBrbsGGAR6G0C_9y4g2E",
			"plus_code": {
				"compound_code": "QMJP+X8 日本、東京都板橋区",
				"global_code": "8Q7XQMJP+X8"
			}
		},
		"related_page": ""
	}, {
		"name": "舟渡小学校",
		"address": "舟渡3-6-15",
		"call_number": "03-3969-8405",
		"capacity": 1223,
		"geo": {
			"coordinate": {
				"lng": 139.6815768,
				"lat": 35.793635
			},
			"formatted_address": "日本、〒174-0041 東京都板橋区舟渡３丁目６−１５",
			"place_id": "ChIJYZGHUK_sGGARaJ0MfRITxYk",
			"plus_code": {
				"compound_code": "QMVJ+FJ 日本、東京都板橋区",
				"global_code": "8Q7XQMVJ+FJ"
			}
		},
		"related_page": ""
	}, {
		"name": "下赤塚小学校",
		"address": "赤塚6-14-1",
		"call_number": "03-3939-0396",
		"capacity": 1168,
		"geo": {
			"coordinate": {
				"lng": 139.6431836,
				"lat": 35.7743344
			},
			"formatted_address": "日本、〒175-0092 東京都板橋区赤塚６丁目１４−１",
			"place_id": "ChIJ26kqL3vsGGAR2qCSDYAX-c0",
			"plus_code": {
				"compound_code": "QJFV+P7 日本、東京都板橋区",
				"global_code": "8Q7XQJFV+P7"
			}
		},
		"related_page": ""
	}, {
		"name": "赤塚新町小学校",
		"address": "赤塚新町3-31-1",
		"call_number": "03-3977-7811",
		"capacity": 1117,
		"geo": {
			"coordinate": {
				"lng": 139.63592,
				"lat": 35.7693919
			},
			"formatted_address": "日本、〒175-0093 東京都板橋区赤塚新町３丁目３１−１",
			"place_id": "ChIJA2YZZG7sGGAR8JZtcjNHFi0",
			"plus_code": {
				"compound_code": "QJ9P+Q9 日本、東京都板橋区",
				"global_code": "8Q7XQJ9P+Q9"
			}
		},
		"related_page": ""
	}, {
		"name": "赤塚第三中学校",
		"address": "赤塚7-27-15",
		"call_number": "03-3930-3535",
		"capacity": 1807,
		"geo": {
			"coordinate": {
				"lng": 139.6476534,
				"lat": 35.7795488
			},
			"formatted_address": "日本、〒175-0092 東京都板橋区赤塚７丁目２７−１５",
			"place_id": "ChIJK2wQy33sGGARlJcRves9J88",
			"plus_code": {
				"compound_code": "QJHX+R3 日本、東京都板橋区",
				"global_code": "8Q7XQJHX+R3"
			}
		},
		"related_page": ""
	}, {
		"name": "成増小学校",
		"address": "成増1-11-1",
		"call_number": "03-3930-0172",
		"capacity": 1357,
		"geo": {
			"coordinate": {
				"lng": 139.6325479,
				"lat": 35.7743918
			},
			"formatted_address": "日本、〒175-0094 東京都板橋区成増１丁目１１−１",
			"place_id": "ChIJt31qgHPsGGARXS_X094UwZs",
			"plus_code": {
				"compound_code": "QJFM+Q2 日本、東京都板橋区",
				"global_code": "8Q7XQJFM+Q2"
			}
		},
		"related_page": ""
	}, {
		"name": "成増ヶ丘小学校",
		"address": "成増3-17-7",
		"call_number": "03-3930-2070",
		"capacity": 1445,
		"geo": {
			"coordinate": {
				"lng": 139.634514,
				"lat": 35.7807755
			},
			"formatted_address": "日本、〒175-0094 東京都板橋区成増３丁目１７−７",
			"place_id": "ChIJLzX-F4rrGGARJPg1riVje_0",
			"plus_code": {
				"compound_code": "QJJM+8R 日本、東京都板橋区",
				"global_code": "8Q7XQJJM+8R"
			}
		},
		"related_page": ""
	}, {
		"name": "赤塚小学校",
		"address": "赤塚3-1-22",
		"call_number": "03-3939-0047",
		"capacity": 1160,
		"geo": {
			"coordinate": {
				"lng": 139.6403418,
				"lat": 35.77763240000001
			},
			"formatted_address": "日本、〒175-0092 東京都板橋区赤塚３丁目１−２２",
			"place_id": "ChIJf0h8_3nsGGARU8wVN7ERPaw",
			"plus_code": {
				"compound_code": "QJHR+34 日本、東京都板橋区",
				"global_code": "8Q7XQJHR+34"
			}
		},
		"related_page": ""
	}, {
		"name": "三園小学校",
		"address": "三園1-24-1",
		"call_number": "03-3930-8934",
		"capacity": 1222,
		"geo": {
			"coordinate": {
				"lng": 139.6374599,
				"lat": 35.7903447
			},
			"formatted_address": "日本、〒175-0091 東京都板橋区三園１丁目２４−１",
			"place_id": "ChIJsfxmK5DrGGAR8aEjVG0k5cY",
			"plus_code": {
				"compound_code": "QJRP+4X 日本、東京都板橋区",
				"global_code": "8Q7XQJRP+4X"
			}
		},
		"related_page": ""
	}, {
		"name": "赤塚第二中学校",
		"address": "成増3-18-1",
		"call_number": "03-3939-0247",
		"capacity": 2199,
		"geo": {
			"coordinate": {
				"lng": 139.633347,
				"lat": 35.7807041
			},
			"formatted_address": "日本、〒175-0094 東京都板橋区成増３丁目１８−１",
			"place_id": "ChIJmepIRYrrGGAR4DXN-c8kGd0",
			"plus_code": {
				"compound_code": "QJJM+78 日本、東京都板橋区",
				"global_code": "8Q7XQJJM+78"
			}
		},
		"related_page": ""
	}, {
		"name": "徳丸小学校",
		"address": "徳丸1-21-1",
		"call_number": "03-3934-1888",
		"capacity": 1322,
		"geo": {
			"coordinate": {
				"lng": 139.6666498,
				"lat": 35.77178
			},
			"formatted_address": "日本、〒175-0083 東京都板橋区徳丸１丁目２１−１",
			"place_id": "ChIJ_3VkmevsGGARwtWIQS-nn2s",
			"plus_code": {
				"compound_code": "QMC8+PM 日本、東京都板橋区",
				"global_code": "8Q7XQMC8+PM"
			}
		},
		"related_page": ""
	}, {
		"name": "北野小学校",
		"address": "徳丸3-23-1",
		"call_number": "03-3933-6151",
		"capacity": 1602,
		"geo": {
			"coordinate": {
				"lng": 139.6575123,
				"lat": 35.7718651
			},
			"formatted_address": "日本、〒175-0083 東京都板橋区徳丸３丁目２３−１",
			"place_id": "ChIJJ64kwozsGGARWGl_pVyCg8I",
			"plus_code": {
				"compound_code": "QMC5+P2 日本、東京都板橋区",
				"global_code": "8Q7XQMC5+P2"
			}
		},
		"related_page": ""
	}, {
		"name": "紅梅小学校",
		"address": "徳丸8-10-1",
		"call_number": "03-3932-6368",
		"capacity": 1444,
		"geo": {
			"coordinate": {
				"lng": 139.6572064,
				"lat": 35.7809313
			},
			"formatted_address": "日本、〒175-0083 東京都板橋区徳丸８丁目１０−１",
			"place_id": "ChIJk8cHo4XsGGARO_iZMLNhajU",
			"plus_code": {
				"compound_code": "QMJ4+9V 日本、東京都板橋区",
				"global_code": "8Q7XQMJ4+9V"
			}
		},
		"related_page": ""
	}, {
		"name": "赤塚第一中学校",
		"address": "徳丸4-13-1",
		"call_number": "03-3932-5314",
		"capacity": 1976,
		"geo": {
			"coordinate": {
				"lng": 139.6518615,
				"lat": 35.7714177
			},
			"formatted_address": "日本、〒175-0083 東京都板橋区徳丸４丁目１３−１",
			"place_id": "ChIJWc4VT4rsGGARX9rq4CIydt0",
			"plus_code": {
				"compound_code": "QMC2+HP 日本、東京都板橋区",
				"global_code": "8Q7XQMC2+HP"
			}
		},
		"related_page": ""
	}, {
		"name": "高島第六小学校",
		"address": "高島平1-50-1",
		"call_number": "03-3935-2550",
		"capacity": 1412,
		"geo": {
			"coordinate": {
				"lng": 139.670388,
				"lat": 35.7845637
			},
			"formatted_address": "日本、〒175-0082 東京都板橋区高島平１丁目５０−１",
			"place_id": "ChIJZwLhV73sGGARzEW0L2QRn_E",
			"plus_code": {
				"compound_code": "QMMC+R5 日本、東京都板橋区",
				"global_code": "8Q7XQMMC+R5"
			}
		},
		"related_page": ""
	}, {
		"name": "高島第二小学校",
		"address": "高島平2-25-1",
		"call_number": "03-3936-1561",
		"capacity": 1363,
		"geo": {
			"coordinate": {
				"lng": 139.6622948,
				"lat": 35.7847496
			},
			"formatted_address": "日本、〒175-0082 東京都板橋区高島平２丁目２５−１",
			"place_id": "ChIJzcWYFZvsGGAR2nidIzWYkzs",
			"plus_code": {
				"compound_code": "QMM6+VW 日本、東京都板橋区",
				"global_code": "8Q7XQMM6+VW"
			}
		},
		"related_page": ""
	}, {
		"name": "高島第五小学校",
		"address": "高島平3-11-1",
		"call_number": "03-3975-6823",
		"capacity": 945,
		"geo": {
			"coordinate": {
				"lng": 139.6569474,
				"lat": 35.78878
			},
			"formatted_address": "日本、〒175-0082 東京都板橋区高島平３丁目１１−１",
			"place_id": "ChIJYWdNTILsGGAREjbtToES7Mc",
			"plus_code": {
				"compound_code": "QMQ4+GQ 日本、東京都板橋区",
				"global_code": "8Q7XQMQ4+GQ"
			}
		},
		"related_page": ""
	}, {
		"name": "高島第三小学校",
		"address": "高島平4-21-1",
		"call_number": "03-3938-5173",
		"capacity": 1223,
		"geo": {
			"coordinate": {
				"lng": 139.6502146,
				"lat": 35.7888551
			},
			"formatted_address": "日本、〒175-0082 東京都板橋区高島平４丁目２１−１",
			"place_id": "ChIJk4bh0YHrGGARguryikCrh98",
			"plus_code": {
				"compound_code": "QMQ2+G3 日本、東京都板橋区",
				"global_code": "8Q7XQMQ2+G3"
			}
		},
		"related_page": ""
	}, {
		"name": "高島第一小学校",
		"address": "高島平7-24-1",
		"call_number": "03-3939-2091",
		"capacity": 1208,
		"geo": {
			"coordinate": {
				"lng": 139.6598302,
				"lat": 35.7919066
			},
			"formatted_address": "日本、〒175-0082 東京都板橋区高島平７丁目２４−１",
			"place_id": "ChIJbSOdJX3rGGARNyvzJnA2VBU",
			"plus_code": {
				"compound_code": "QMR5+QW 日本、東京都板橋区",
				"global_code": "8Q7XQMR5+QW"
			}
		},
		"related_page": ""
	}, {
		"name": "新河岸小学校",
		"address": "新河岸1-3-1",
		"call_number": "03-3936-8530",
		"capacity": 1319,
		"geo": {
			"coordinate": {
				"lng": 139.6651387,
				"lat": 35.7937196
			},
			"formatted_address": "日本、〒175-0081 東京都板橋区新河岸１丁目３−１",
			"place_id": "ChIJHZIdJWLrGGARDbVMhykgQxY",
			"plus_code": {
				"compound_code": "QMV8+F3 日本、東京都板橋区",
				"global_code": "8Q7XQMV8+F3"
			}
		},
		"related_page": ""
	}, {
		"name": "西台中学校",
		"address": "高島平1-4-1",
		"call_number": "03-3934-4501",
		"capacity": 1642,
		"geo": {
			"coordinate": {
				"lng": 139.6715928,
				"lat": 35.7820555
			},
			"formatted_address": "日本、〒175-0082 東京都板橋区高島平１丁目４−１",
			"place_id": "ChIJg1ym7r3sGGAR9EhCotv0r8E",
			"plus_code": {
				"compound_code": "QMJC+RJ 日本、東京都板橋区",
				"global_code": "8Q7XQMJC+RJ"
			}
		},
		"related_page": ""
	}, {
		"name": "高島第二中学校",
		"address": "高島平2-24-1",
		"call_number": "03-3936-1591",
		"capacity": 1536,
		"geo": {
			"coordinate": {
				"lng": 139.6609526,
				"lat": 35.785157
			},
			"formatted_address": "日本、〒175-0082 東京都板橋区高島平２丁目２４−１",
			"place_id": "ChIJbcmETZvsGGARqCBsEfjTSb0",
			"plus_code": {
				"compound_code": "QMP6+39 日本、東京都板橋区",
				"global_code": "8Q7XQMP6+39"
			}
		},
		"related_page": ""
	}, {
		"name": "高島第三中学校",
		"address": "高島平4-22-1",
		"call_number": "03-3938-2523",
		"capacity": 1396,
		"geo": {
			"coordinate": {
				"lng": 139.6508077,
				"lat": 35.7884096
			},
			"formatted_address": "日本、〒175-0082 東京都板橋区高島平４丁目２２−１",
			"place_id": "ChIJG5ubmn_rGGARK3acEkJ6Mt0",
			"plus_code": {
				"compound_code": "QMQ2+98 日本、東京都板橋区",
				"global_code": "8Q7XQMQ2+98"
			}
		},
		"related_page": ""
	}, {
		"name": "高島第一中学校",
		"address": "高島平8-26-1",
		"call_number": "03-3936-1171",
		"capacity": 1330,
		"geo": {
			"coordinate": {
				"lng": 139.6630564,
				"lat": 35.791957
			},
			"formatted_address": "日本、〒175-0082 東京都板橋区高島平８丁目２６−１",
			"place_id": "ChIJa0S8iGLrGGARJLNkDPrv6Wc",
			"plus_code": {
				"compound_code": "QMR7+Q6 日本、東京都板橋区",
				"global_code": "8Q7XQMR7+Q6"
			}
		},
		"related_page": ""
	}, {
		"name": "旧板橋第四中学校",
		"address": "富士見町3-1",
		"call_number": "",
		"capacity": null,
		"geo": {
			"coordinate": {
				"lng": 139.7014682,
				"lat": 35.7610068
			},
			"formatted_address": "日本、〒174-0062 東京都板橋区富士見町３−１",
			"place_id": "ChIJd5DIHdCSGGAR0IZjcG8fUPU",
			"plus_code": {}
		},
		"related_page": ""
	}, {
		"name": "旧板橋第九小学校",
		"address": "栄町6-1",
		"call_number": "03-3962-3181",
		"capacity": 1097,
		"geo": {
			"coordinate": {
				"lng": 139.7042854,
				"lat": 35.754674
			},
			"formatted_address": "日本、〒173-0015 東京都板橋区栄町６−１",
			"place_id": "ChIJO-DiBceSGGARIpQ8jDpgoT4",
			"plus_code": {
				"compound_code": "QP33+VP 日本、東京都板橋区",
				"global_code": "8Q7XQP33+VP"
			}
		},
		"related_page": ""
	}, {
		"name": "総合ケアセンター若葉ゆめの園",
		"address": "若木3-15-1",
		"call_number": "03-3935-5780",
		"capacity": null,
		"geo": {
			"coordinate": {
				"lng": 139.6742523,
				"lat": 35.7722914
			},
			"formatted_address": "日本、〒174-0065 東京都板橋区若木３丁目１５−１",
			"place_id": "ChIJJ-4OxMPsGGARSpgQnDS3P6c",
			"plus_code": {
				"compound_code": "QMCF+WP 日本、東京都板橋区",
				"global_code": "8Q7XQMCF+WP"
			}
		},
		"related_page": ""
	}]
}