{
	"shelters": [{
		"name": "赤羽小学校",
		"address": "赤羽1-24-6",
		"call_number": "03-3901-8510",
		"capacity": null,
		"geo": {
			"coordinate": {
				"lng": 139.7215692,
				"lat": 35.7805627
			},
			"formatted_address": "日本、〒115-0045 東京都北区赤羽１丁目２４−６",
			"place_id": "ChIJhfqh1hyTGGAR84fA7SZYu3g",
			"plus_code": {
				"compound_code": "QPJC+6J 日本、東京都北区",
				"global_code": "8Q7XQPJC+6J"
			}
		},
		"related_page": ""
	}, {
		"name": "西が丘小学校",
		"address": "十条仲原4-5-17",
		"call_number": "03-3900-8866",
		"capacity": null,
		"geo": {
			"coordinate": {
				"lng": 139.7214512,
				"lat": 35.7700242
			},
			"formatted_address": "日本、〒114-0031 東京都北区十条仲原４丁目５−１７",
			"place_id": "ChIJhxEFSeWSGGARe0uSV4FQ1eU",
			"plus_code": {
				"compound_code": "QPCC+2H 日本、東京都北区",
				"global_code": "8Q7XQPCC+2H"
			}
		},
		"related_page": ""
	}, {
		"name": "としま若葉小学校",
		"address": "豊島5-3-30",
		"call_number": "03-3912-1458",
		"capacity": null,
		"geo": {
			"coordinate": {
				"lng": 139.7502,
				"lat": 35.7660786
			},
			"formatted_address": "日本、〒114-0003 東京都北区豊島５丁目３−３０",
			"place_id": "ChIJOSwgj2ySGGARi0DMveMPB0k",
			"plus_code": {
				"compound_code": "QQ82+C3 日本、東京都北区",
				"global_code": "8Q7XQQ82+C3"
			}
		},
		"related_page": ""
	}, {
		"name": "十条台小学校",
		"address": "中十条1-5-6",
		"call_number": "03-3908-3300",
		"capacity": null,
		"geo": {
			"coordinate": {
				"lng": 139.7298382,
				"lat": 35.7589089
			},
			"formatted_address": "日本、〒114-0032 東京都北区中十条１丁目５−６",
			"place_id": "ChIJDYSjLoqSGGARVs8M_zvTlpk",
			"plus_code": {
				"compound_code": "QP5H+HW 日本、東京都北区",
				"global_code": "8Q7XQP5H+HW"
			}
		},
		"related_page": ""
	}, {
		"name": "東十条小学校",
		"address": "東十条3-14-23",
		"call_number": "03-3913-6648",
		"capacity": null,
		"geo": {
			"coordinate": {
				"lng": 139.7288802,
				"lat": 35.7660043
			},
			"formatted_address": "日本、〒114-0001 東京都北区東十条３丁目１４−２３",
			"place_id": "ChIJqfiVSPSSGGARPYg19DuyhZo",
			"plus_code": {
				"compound_code": "QP8H+CH 日本、東京都北区",
				"global_code": "8Q7XQP8H+CH"
			}
		},
		"related_page": ""
	}, {
		"name": "柳田小学校",
		"address": "豊島2-11-20",
		"call_number": "03-3911-5409",
		"capacity": null,
		"geo": {
			"coordinate": {
				"lng": 139.7438982,
				"lat": 35.7576423
			},
			"formatted_address": "日本、〒114-0003 東京都北区豊島２丁目１１−２０",
			"place_id": "ChIJgYhwWXCSGGARzU_leQolimc",
			"plus_code": {
				"compound_code": "QP5V+3H 日本、東京都北区",
				"global_code": "8Q7XQP5V+3H"
			}
		},
		"related_page": ""
	}, {
		"name": "堀船小学校",
		"address": "堀船2-11-9",
		"call_number": "03-3912-2868",
		"capacity": null,
		"geo": {
			"coordinate": {
				"lng": 139.7466971,
				"lat": 35.7537135
			},
			"formatted_address": "日本、〒114-0004 東京都北区堀船２丁目１１−９",
			"place_id": "ChIJc5gei3aSGGARtAl8F9bADrk",
			"plus_code": {
				"compound_code": "QP3W+FM 日本、東京都北区",
				"global_code": "8Q7XQP3W+FM"
			}
		},
		"related_page": ""
	}, {
		"name": "豊川小学校",
		"address": "豊島3-10-23",
		"call_number": "03-3913-4111",
		"capacity": null,
		"geo": {
			"coordinate": {
				"lng": 139.7431858,
				"lat": 35.7608921
			},
			"formatted_address": "日本、〒114-0003 東京都北区豊島３丁目１０−２３",
			"place_id": "ChIJn-NNl2-SGGARX0MvRwH4iLY",
			"plus_code": {
				"compound_code": "QP6V+97 日本、東京都北区",
				"global_code": "8Q7XQP6V+97"
			}
		},
		"related_page": ""
	}, {
		"name": "荒川小学校",
		"address": "中十条3-1-6",
		"call_number": "03-3908-3949",
		"capacity": null,
		"geo": {
			"coordinate": {
				"lng": 139.7256286,
				"lat": 35.7631543
			},
			"formatted_address": "日本、〒114-0032 東京都北区中十条３丁目１−６",
			"place_id": "ChIJsco6cvOSGGARLWF1rl7kGhE",
			"plus_code": {
				"compound_code": "QP7G+77 日本、東京都北区",
				"global_code": "8Q7XQP7G+77"
			}
		},
		"related_page": ""
	}, {
		"name": "王子第五小学校",
		"address": "上十条2-18-17",
		"call_number": "03-3907-2381",
		"capacity": null,
		"geo": {
			"coordinate": {
				"lng": 139.719392,
				"lat": 35.759658
			},
			"formatted_address": "日本、〒114-0034 東京都北区上十条２丁目１８−１７",
			"place_id": "ChIJAUa7J-2SGGAR8CdYzuL0RA0",
			"plus_code": {
				"compound_code": "QP59+VQ 日本、東京都北区",
				"global_code": "8Q7XQP59+VQ"
			}
		},
		"related_page": ""
	}, {
		"name": "王子第三小学校",
		"address": "上十条5-2-3",
		"call_number": "03-3907-2355",
		"capacity": null,
		"geo": {
			"coordinate": {
				"lng": 139.7176969,
				"lat": 35.7654012
			},
			"formatted_address": "日本、〒114-0034 東京都北区上十条５丁目２−３",
			"place_id": "ChIJ-4GnIe-SGGARJ8P29cfZAWI",
			"plus_code": {
				"compound_code": "QP89+53 日本、東京都北区",
				"global_code": "8Q7XQP89+53"
			}
		},
		"related_page": ""
	}, {
		"name": "王子第二小学校",
		"address": "王子本町2-2-5",
		"call_number": "03-3908-2460",
		"capacity": null,
		"geo": {
			"coordinate": {
				"lng": 139.7328992,
				"lat": 35.7561113
			},
			"formatted_address": "日本、〒114-0022 東京都北区王子本町２丁目２−５",
			"place_id": "ChIJSX9FvWKSGGARaQmHaxC6Zio",
			"plus_code": {
				"compound_code": "QP4M+C5 日本、東京都北区",
				"global_code": "8Q7XQP4M+C5"
			}
		},
		"related_page": ""
	}, {
		"name": "王子第一小学校",
		"address": "王子5-14-18",
		"call_number": "03-3919-9174",
		"capacity": null,
		"geo": {
			"coordinate": {
				"lng": 139.7374713,
				"lat": 35.7650205
			},
			"formatted_address": "日本、〒114-0002 東京都北区王子５丁目１４−１８",
			"place_id": "ChIJE-mISGeSGGAR5gq3MiKd1w0",
			"plus_code": {
				"compound_code": "QP8P+2X 日本、東京都北区",
				"global_code": "8Q7XQP8P+2X"
			}
		},
		"related_page": ""
	}, {
		"name": "旧桜田小学校",
		"address": "王子5-2-8",
		"call_number": "",
		"capacity": null,
		"geo": {
			"coordinate": {
				"lng": 139.7345774,
				"lat": 35.763226
			},
			"formatted_address": "日本、〒114-0002 東京都北区王子５丁目２−８",
			"place_id": "ChIJiQkeV2CSGGARlf9hd5gDvTU",
			"plus_code": {
				"compound_code": "QP7M+7R 日本、東京都北区",
				"global_code": "8Q7XQP7M+7R"
			}
		},
		"related_page": ""
	}, {
		"name": "田端小学校",
		"address": "田端5-4-1",
		"call_number": "03-3823-0014",
		"capacity": null,
		"geo": {
			"coordinate": {
				"lng": 139.7568517,
				"lat": 35.737195
			},
			"formatted_address": "日本、〒114-0014 東京都北区田端５丁目４−１",
			"place_id": "ChIJz_Fo48GNGGARI_0yMK9ppkw",
			"plus_code": {
				"compound_code": "PQP4+VP 日本、東京都北区",
				"global_code": "8Q7XPQP4+VP"
			}
		},
		"related_page": "関連ページ\n"
	}, {
		"name": "北区役所滝野川分庁舎",
		"address": "滝野川2-52-10",
		"call_number": "",
		"capacity": null,
		"geo": {
			"coordinate": {
				"lng": 139.7332202,
				"lat": 35.7512338
			},
			"formatted_address": "日本、〒114-0023 東京都北区滝野川２丁目５２−１０",
			"place_id": "ChIJBTqO532SGGARj5wbirV2KP8",
			"plus_code": {
				"compound_code": "QP2M+F7 日本、東京都北区",
				"global_code": "8Q7XQP2M+F7"
			}
		},
		"related_page": ""
	}, {
		"name": "滝野川第三小学校",
		"address": "滝野川1-12-27",
		"call_number": "03-3910-2502",
		"capacity": null,
		"geo": {
			"coordinate": {
				"lng": 139.7367267,
				"lat": 35.74875890000001
			},
			"formatted_address": "日本、〒114-0023 東京都北区滝野川１丁目１２−２７",
			"place_id": "ChIJp4Y7sniSGGARqq_DF1LWHmE",
			"plus_code": {
				"compound_code": "PPXP+GM 日本、東京都北区",
				"global_code": "8Q7XPPXP+GM"
			}
		},
		"related_page": ""
	}, {
		"name": "梅木小学校",
		"address": "西が丘2-21-15",
		"call_number": "03-3900-3393",
		"capacity": null,
		"geo": {
			"coordinate": {
				"lng": 139.7137583,
				"lat": 35.7677465
			},
			"formatted_address": "日本、〒115-0056 東京都北区西が丘２丁目２１−１５",
			"place_id": "ChIJn_68y-eSGGAR5Wp7zfbU6ic",
			"plus_code": {
				"compound_code": "QP97+3G 日本、東京都北区",
				"global_code": "8Q7XQP97+3G"
			}
		},
		"related_page": ""
	}, {
		"name": "赤羽岩淵中学校",
		"address": "赤羽2-6-18",
		"call_number": "",
		"capacity": null,
		"geo": {
			"coordinate": {
				"lng": 139.7258029,
				"lat": 35.7792821
			},
			"formatted_address": "日本、〒115-0045 東京都北区赤羽２丁目６−１８",
			"place_id": "ChIJuRdu7v2SGGARmpIhuPYLSSk",
			"plus_code": {
				"compound_code": "QPHG+P8 日本、東京都北区",
				"global_code": "8Q7XQPHG+P8"
			}
		},
		"related_page": ""
	}, {
		"name": "十条富士見中学校",
		"address": "十条台1-9-33",
		"call_number": "",
		"capacity": null,
		"geo": {
			"coordinate": {
				"lng": 139.7234008,
				"lat": 35.757225
			},
			"formatted_address": "日本、〒114-0033 東京都北区十条台１丁目９−３３",
			"place_id": "ChIJuQagv42SGGARhU4oUFkrxrA",
			"plus_code": {
				"compound_code": "QP4F+V9 日本、東京都北区",
				"global_code": "8Q7XQP4F+V9"
			}
		},
		"related_page": ""
	}, {
		"name": "神谷小学校",
		"address": "神谷2-30-5",
		"call_number": "03-3901-2724",
		"capacity": null,
		"geo": {
			"coordinate": {
				"lng": 139.7292711,
				"lat": 35.7720996
			},
			"formatted_address": "日本、〒115-0043 東京都北区神谷２丁目３０−５",
			"place_id": "ChIJA1y6f_eSGGARPlHMRvoCjvg",
			"plus_code": {
				"compound_code": "QPCH+RP 日本、東京都北区",
				"global_code": "8Q7XQPCH+RP"
			}
		},
		"related_page": ""
	}, {
		"name": "第四岩淵小学校",
		"address": "赤羽3-24-23",
		"call_number": "03-3901-2501",
		"capacity": null,
		"geo": {
			"coordinate": {
				"lng": 139.7203304,
				"lat": 35.7858549
			},
			"formatted_address": "日本、〒115-0045 東京都北区赤羽３丁目２４−２３",
			"place_id": "ChIJe7MnvxqTGGARTNju0Zf2K0Y",
			"plus_code": {
				"compound_code": "QPPC+84 日本、東京都北区",
				"global_code": "8Q7XQPPC+84"
			}
		},
		"related_page": ""
	}, {
		"name": "なでしこ小学校",
		"address": "志茂1-34-17",
		"call_number": "03-3901-2601",
		"capacity": null,
		"geo": {
			"coordinate": {
				"lng": 139.7320703,
				"lat": 35.7772783
			},
			"formatted_address": "日本、〒115-0042 東京都北区志茂１丁目３４−１７",
			"place_id": "ChIJTXMJqfiSGGARe-0Ceexstc0",
			"plus_code": {
				"compound_code": "QPGJ+WR 日本、東京都北区",
				"global_code": "8Q7XQPGJ+WR"
			}
		},
		"related_page": ""
	}, {
		"name": "岩淵小学校",
		"address": "岩淵町6-6",
		"call_number": "03-3901-2969",
		"capacity": null,
		"geo": {
			"coordinate": {
				"lng": 139.7257561,
				"lat": 35.7842718
			},
			"formatted_address": "日本、〒115-0041 東京都北区岩淵町６−６",
			"place_id": "ChIJWT6m9wOTGGARprm4Cl8NUbU",
			"plus_code": {
				"compound_code": "QPMG+P8 日本、東京都北区",
				"global_code": "8Q7XQPMG+P8"
			}
		},
		"related_page": ""
	}, {
		"name": "旧富士見中学校",
		"address": "上十条3-1-25",
		"call_number": "03-3908-5648",
		"capacity": null,
		"geo": {
			"coordinate": {
				"lng": 139.717287,
				"lat": 35.7595664
			},
			"formatted_address": "日本、〒114-0034 東京都北区上十条３丁目１−２５",
			"place_id": "ChIJ1YQKmeySGGARrczViXLVki0",
			"plus_code": {
				"compound_code": "QP58+RW 日本、東京都北区",
				"global_code": "8Q7XQP58+RW"
			}
		},
		"related_page": ""
	}, {
		"name": "ココキタ豊島北コミュニティアリーナ",
		"address": "豊島5-3-13",
		"call_number": "03-3913-8363",
		"capacity": null,
		"geo": {
			"coordinate": {
				"lng": 139.7500249,
				"lat": 35.7648842
			},
			"formatted_address": "日本、〒114-0003 東京都北区豊島５丁目３−１３",
			"place_id": "ChIJOZiH9mySGGARFD0Vqp-x2Y0",
			"plus_code": {
				"compound_code": "QQ72+X2 日本、東京都北区",
				"global_code": "8Q7XQQ72+X2"
			}
		},
		"related_page": ""
	}, {
		"name": "新町コミュニティアリーナ",
		"address": "田端新町2-27-17",
		"call_number": "",
		"capacity": null,
		"geo": {
			"coordinate": {
				"lng": 139.7680606,
				"lat": 35.7402169
			},
			"formatted_address": "日本、〒114-0012 東京都北区田端新町２丁目２７−１７",
			"place_id": "ChIJO7VId96NGGAR9dlhPd5K3ig",
			"plus_code": {
				"compound_code": "PQR9+36 日本、東京都北区",
				"global_code": "8Q7XPQR9+36"
			}
		},
		"related_page": ""
	}, {
		"name": "旧清至中学校",
		"address": "王子6-7-3",
		"call_number": "",
		"capacity": null,
		"geo": {
			"coordinate": {
				"lng": 139.7412925,
				"lat": 35.7628972
			},
			"formatted_address": "日本、〒114-0002 東京都北区王子６丁目７−３",
			"place_id": "ChIJpVQk3mWSGGARMAPUYBJ2rl0",
			"plus_code": {}
		},
		"related_page": ""
	}, {
		"name": "飛鳥中学校",
		"address": "西ヶ原3-5-12",
		"call_number": "03-3910-6175",
		"capacity": null,
		"geo": {
			"coordinate": {
				"lng": 139.742684,
				"lat": 35.7441344
			},
			"formatted_address": "日本、〒114-0024 東京都北区西ケ原３丁目５−１２",
			"place_id": "ChIJJ8T_Zo-NGGARlHoYTSZOG8o",
			"plus_code": {
				"compound_code": "PPVV+M3 日本、東京都北区",
				"global_code": "8Q7XPPVV+M3"
			}
		},
		"related_page": ""
	}, {
		"name": "田端中学校",
		"address": "田端4-17-1",
		"call_number": "03-5814-7151",
		"capacity": null,
		"geo": {
			"coordinate": {
				"lng": 139.7544668,
				"lat": 35.7385858
			},
			"formatted_address": "日本、〒114-0014 東京都北区田端４丁目１７−１",
			"place_id": "ChIJt8xlHeuNGGARQ3tnrMv85uU",
			"plus_code": {}
		},
		"related_page": ""
	}, {
		"name": "浮間中学校",
		"address": "浮間4-29-32",
		"call_number": "03-3967-0226",
		"capacity": null,
		"geo": {
			"coordinate": {
				"lng": 139.6932561,
				"lat": 35.7902835
			},
			"formatted_address": "日本、〒115-0051 東京都北区浮間４丁目２９−３２",
			"place_id": "ChIJI5jZj0yTGGAR46SOO8uMqBY",
			"plus_code": {
				"compound_code": "QMRV+48 日本、東京都北区",
				"global_code": "8Q7XQMRV+48"
			}
		},
		"related_page": ""
	}, {
		"name": "神谷中学校",
		"address": "神谷2-46-13",
		"call_number": "03-3902-2461",
		"capacity": null,
		"geo": {
			"coordinate": {
				"lng": 139.7293565,
				"lat": 35.7736291
			},
			"formatted_address": "日本、〒115-0043 東京都北区神谷２丁目４６−１３",
			"place_id": "ChIJJ-xns_mSGGARZgnBxe4pLbI",
			"plus_code": {
				"compound_code": "QPFH+FP 日本、東京都北区",
				"global_code": "8Q7XQPFH+FP"
			}
		},
		"related_page": ""
	}, {
		"name": "桐ケ丘中学校",
		"address": "桐ケ丘2-6-11",
		"call_number": "03-5963-3811",
		"capacity": null,
		"geo": {
			"coordinate": {
				"lng": 139.7085134,
				"lat": 35.7798899
			},
			"formatted_address": "日本、〒115-0054 東京都北区桐ケ丘２丁目６−１１",
			"place_id": "ChIJVaM2qSOTGGARMFwA1xhFeng",
			"plus_code": {
				"compound_code": "QPH5+XC 日本、東京都北区",
				"global_code": "8Q7XQPH5+XC"
			}
		},
		"related_page": ""
	}, {
		"name": "稲付中学校",
		"address": "赤羽西6-1-4",
		"call_number": "03-3900-6211",
		"capacity": null,
		"geo": {
			"coordinate": {
				"lng": 139.7074302,
				"lat": 35.770457
			},
			"formatted_address": "日本、〒115-0055 東京都北区赤羽西６丁目１−４",
			"place_id": "ChIJE_MtGd-SGGARYuRWsnhyjuc",
			"plus_code": {
				"compound_code": "QPC4+5X 日本、東京都北区",
				"global_code": "8Q7XQPC4+5X"
			}
		},
		"related_page": ""
	}, {
		"name": "堀船中学校",
		"address": "堀船2-23-20",
		"call_number": "03-3911-8817",
		"capacity": null,
		"geo": {
			"coordinate": {
				"lng": 139.7468591,
				"lat": 35.7553456
			},
			"formatted_address": "日本、〒114-0004 東京都北区堀船２丁目２３−２０",
			"place_id": "ChIJ_82qpXaSGGARJAgNbskk2Es",
			"plus_code": {
				"compound_code": "QP4W+4P 日本、東京都北区",
				"global_code": "8Q7XQP4W+4P"
			}
		},
		"related_page": ""
	}, {
		"name": "明桜中学校",
		"address": "王子6-3-23",
		"call_number": "03-3912-1838",
		"capacity": null,
		"geo": {
			"coordinate": {
				"lng": 139.7419006,
				"lat": 35.7600355
			},
			"formatted_address": "日本、〒114-0002 東京都北区王子６丁目３−２３",
			"place_id": "ChIJAc-raGWSGGARmYZSZJPtPGc",
			"plus_code": {
				"compound_code": "QP6R+2Q 日本、東京都北区",
				"global_code": "8Q7XQP6R+2Q"
			}
		},
		"related_page": ""
	}, {
		"name": "王子桜中学校",
		"address": "王子2-7-1",
		"call_number": "03-5902-3155",
		"capacity": null,
		"geo": {
			"coordinate": {
				"lng": 139.7357509,
				"lat": 35.7587888
			},
			"formatted_address": "日本、〒114-0002 東京都北区王子２丁目７−１",
			"place_id": "ChIJ61jlpmOSGGAR-rIio-VyKqE",
			"plus_code": {
				"compound_code": "QP5P+G8 日本、東京都北区",
				"global_code": "8Q7XQP5P+G8"
			}
		},
		"related_page": ""
	}, {
		"name": "旧西浮間小学校",
		"address": "浮間4-29-30",
		"call_number": "",
		"capacity": null,
		"geo": {
			"coordinate": {
				"lng": 139.6915907,
				"lat": 35.7903529
			},
			"formatted_address": "日本、〒115-0051 東京都北区浮間４丁目２９−３０",
			"place_id": "ChIJgSQ5x0yTGGARcAXdRXlo6UQ",
			"plus_code": {
				"compound_code": "QMRR+4J 日本、東京都北区",
				"global_code": "8Q7XQMRR+4J"
			}
		},
		"related_page": ""
	}, {
		"name": "志茂子ども交流館",
		"address": "志茂5-18-3",
		"call_number": "03-3902-4646",
		"capacity": null,
		"geo": {
			"coordinate": {
				"lng": 139.7313218,
				"lat": 35.7834209
			},
			"formatted_address": "日本、〒115-0042 東京都北区志茂５丁目１８−３",
			"place_id": "ChIJvQJ2bQCTGGARPzAg45BPUlA",
			"plus_code": {
				"compound_code": "QPMJ+9G 日本、東京都北区",
				"global_code": "8Q7XQPMJ+9G"
			}
		},
		"related_page": ""
	}, {
		"name": "滝野川もみじ小学校",
		"address": "滝野川3-72-1",
		"call_number": "03-3949-5267",
		"capacity": null,
		"geo": {
			"coordinate": {
				"lng": 139.7285181,
				"lat": 35.7509453
			},
			"formatted_address": "日本、〒114-0023 東京都北区滝野川３丁目７２−１",
			"place_id": "ChIJ739K9IaSGGARhcY9l40iIt8",
			"plus_code": {
				"compound_code": "QP2H+9C 日本、東京都北区",
				"global_code": "8Q7XQP2H+9C"
			}
		},
		"related_page": ""
	}, {
		"name": "谷端小学校",
		"address": "滝野川7-12-17",
		"call_number": "03-3916-1155",
		"capacity": null,
		"geo": {
			"coordinate": {
				"lng": 139.7216102,
				"lat": 35.74475040000001
			},
			"formatted_address": "日本、〒114-0023 東京都北区滝野川７丁目１２−１７",
			"place_id": "ChIJ17X2y5ySGGARYnH_4Y5Tz_w",
			"plus_code": {
				"compound_code": "PPVC+WJ 日本、東京都北区",
				"global_code": "8Q7XPPVC+WJ"
			}
		},
		"related_page": ""
	}, {
		"name": "西ケ原小学校",
		"address": "西ケ原4-19-21",
		"call_number": "03-3910-5204",
		"capacity": null,
		"geo": {
			"coordinate": {
				"lng": 139.7368796,
				"lat": 35.743218
			},
			"formatted_address": "日本、〒114-0024 東京都北区西ケ原４丁目１９−２１",
			"place_id": "ChIJeRYiVIGNGGARqi6EkldfBMk",
			"plus_code": {
				"compound_code": "PPVP+7Q 日本、東京都北区",
				"global_code": "8Q7XPPVP+7Q"
			}
		},
		"related_page": ""
	}, {
		"name": "滝野川第五小学校",
		"address": "昭和町3-3-12",
		"call_number": "03-3893-1200",
		"capacity": null,
		"geo": {
			"coordinate": {
				"lng": 139.7498748,
				"lat": 35.7493574
			},
			"formatted_address": "日本、〒114-0011 東京都北区昭和町３丁目３−１２",
			"place_id": "ChIJtUcKpIuNGGARIbc9wjYLvkc",
			"plus_code": {
				"compound_code": "PPXX+PW 日本、東京都北区",
				"global_code": "8Q7XPPXX+PW"
			}
		},
		"related_page": ""
	}, {
		"name": "滝野川第四小学校",
		"address": "東田端2-5-23",
		"call_number": "03-3893-0041",
		"capacity": null,
		"geo": {
			"coordinate": {
				"lng": 139.7629292,
				"lat": 35.7401451
			},
			"formatted_address": "日本、〒114-0013 東京都北区東田端２丁目５−２３",
			"place_id": "ChIJJXn3COiNGGARCcjWPHVilZU",
			"plus_code": {
				"compound_code": "PQR7+35 日本、東京都北区",
				"global_code": "8Q7XPQR7+35"
			}
		},
		"related_page": ""
	}, {
		"name": "滝野川第二小学校",
		"address": "滝野川6-19-4",
		"call_number": "03-3916-3278",
		"capacity": null,
		"geo": {
			"coordinate": {
				"lng": 139.7262457,
				"lat": 35.7448084
			},
			"formatted_address": "日本、〒114-0023 東京都北区滝野川６丁目１９−４",
			"place_id": "ChIJ5V1dPIKSGGAR9-fvN5UVMdg",
			"plus_code": {
				"compound_code": "PPVG+WF 日本、東京都北区",
				"global_code": "8Q7XPPVG+WF"
			}
		},
		"related_page": ""
	}, {
		"name": "滝野川小学校",
		"address": "西ヶ原1-18-10",
		"call_number": "03-3910-3703",
		"capacity": null,
		"geo": {
			"coordinate": {
				"lng": 139.7481654,
				"lat": 35.7424833
			},
			"formatted_address": "日本、〒114-0024 東京都北区西ケ原１丁目１８−１０",
			"place_id": "ChIJxYq-D5KNGGARKfV_ljQN_c8",
			"plus_code": {
				"compound_code": "PPRX+X7 日本、東京都北区",
				"global_code": "8Q7XPPRX+X7"
			}
		},
		"related_page": ""
	}, {
		"name": "赤羽台西小学校",
		"address": "赤羽台2-1-34",
		"call_number": "03-3907-2475",
		"capacity": null,
		"geo": {
			"coordinate": {
				"lng": 139.7135507,
				"lat": 35.775156
			},
			"formatted_address": "日本、〒115-0053 東京都北区赤羽台２丁目１−３４",
			"place_id": "ChIJ57zPKeCSGGARwZNVpo_RHjw",
			"plus_code": {
				"compound_code": "QPG7+3C 日本、東京都北区",
				"global_code": "8Q7XQPG7+3C"
			}
		},
		"related_page": ""
	}, {
		"name": "西浮間小学校",
		"address": "浮間2-7-1",
		"call_number": "03-5915-0133",
		"capacity": null,
		"geo": {
			"coordinate": {
				"lng": 139.6994606,
				"lat": 35.7928775
			},
			"formatted_address": "日本、〒115-0051 東京都北区浮間２丁目７−１",
			"place_id": "ChIJVU9JN0-TGGARe22WT9ti0mI",
			"plus_code": {
				"compound_code": "QMVX+5Q 日本、東京都北区",
				"global_code": "8Q7XQMVX+5Q"
			}
		},
		"related_page": "関連ページ\n"
	}, {
		"name": "浮間小学校",
		"address": "浮間3-4-27",
		"call_number": "03-3969-0491",
		"capacity": null,
		"geo": {
			"coordinate": {
				"lng": 139.7004656,
				"lat": 35.78582859999999
			},
			"formatted_address": "日本、〒115-0051 東京都北区浮間３丁目４−２７",
			"place_id": "ChIJUYEbnTeTGGARYOQN5P3YMEA",
			"plus_code": {
				"compound_code": "QPP2+85 日本、東京都北区",
				"global_code": "8Q7XQPP2+85"
			}
		},
		"related_page": ""
	}, {
		"name": "八幡小学校",
		"address": "赤羽台3-18-5",
		"call_number": "03-3900-8855",
		"capacity": null,
		"geo": {
			"coordinate": {
				"lng": 139.7142904,
				"lat": 35.7808894
			},
			"formatted_address": "日本、〒115-0053 東京都北区赤羽台３丁目１８−５",
			"place_id": "ChIJp8NfIBmTGGARSOZmot3fUEA",
			"plus_code": {
				"compound_code": "QPJ7+9P 日本、東京都北区",
				"global_code": "8Q7XQPJ7+9P"
			}
		},
		"related_page": ""
	}, {
		"name": "袋小学校",
		"address": "赤羽北2-15-3",
		"call_number": "03-3907-7483",
		"capacity": null,
		"geo": {
			"coordinate": {
				"lng": 139.7057432,
				"lat": 35.7840154
			},
			"formatted_address": "日本、〒115-0052 東京都北区赤羽北２丁目１５−３",
			"place_id": "ChIJFR7OkTuTGGARX0laFMvjfmQ",
			"plus_code": {
				"compound_code": "QPM4+J7 日本、東京都北区",
				"global_code": "8Q7XQPM4+J7"
			}
		},
		"related_page": ""
	}, {
		"name": "桐ケ丘郷小学校",
		"address": "桐ケ丘1-10-23",
		"call_number": "03-3907-0878",
		"capacity": null,
		"geo": {
			"coordinate": {
				"lng": 139.7073455,
				"lat": 35.7768507
			},
			"formatted_address": "日本、〒115-0054 東京都北区桐ケ丘１丁目１０−２３",
			"place_id": "ChIJaY9xVyGTGGARmubc4DzbZTA",
			"plus_code": {
				"compound_code": "QPG4+PW 日本、東京都北区",
				"global_code": "8Q7XQPG4+PW"
			}
		},
		"related_page": ""
	}, {
		"name": "稲田小学校",
		"address": "赤羽南2-23-24",
		"call_number": "03-3902-2944",
		"capacity": null,
		"geo": {
			"coordinate": {
				"lng": 139.7252687,
				"lat": 35.7731932
			},
			"formatted_address": "日本、〒115-0044 東京都北区赤羽南２丁目２３−２４",
			"place_id": "ChIJTT4zsfuSGGARm560aqnDFv8",
			"plus_code": {
				"compound_code": "QPFG+74 日本、東京都北区",
				"global_code": "8Q7XQPFG+74"
			}
		},
		"related_page": ""
	}, {
		"name": "滝野川紅葉中学校",
		"address": "滝野川5-55-8",
		"call_number": "",
		"capacity": null,
		"geo": {
			"coordinate": {
				"lng": 139.7248249,
				"lat": 35.7498663
			},
			"formatted_address": "日本、〒114-0023 東京都北区滝野川５丁目５５−８",
			"place_id": "ChIJq9y_rIWSGGARKUa5zQQeoow",
			"plus_code": {
				"compound_code": "PPXF+WW 日本、東京都北区",
				"global_code": "8Q7XPPXF+WW"
			}
		},
		"related_page": ""
	}, {
		"name": "王子小学校",
		"address": "王子2-7-1",
		"call_number": "03-5902-3358",
		"capacity": null,
		"geo": {
			"coordinate": {
				"lng": 139.7357509,
				"lat": 35.7587888
			},
			"formatted_address": "日本、〒114-0002 東京都北区王子２丁目７−１",
			"place_id": "ChIJ61jlpmOSGGAR-rIio-VyKqE",
			"plus_code": {
				"compound_code": "QP5P+G8 日本、東京都北区",
				"global_code": "8Q7XQP5P+G8"
			}
		},
		"related_page": ""
	}, {
		"name": "旧赤羽台東小学校",
		"address": "赤羽台1-1-13",
		"call_number": "",
		"capacity": null,
		"geo": {
			"coordinate": {
				"lng": 139.7176941,
				"lat": 35.780203
			},
			"formatted_address": "日本、〒115-0053 東京都北区赤羽台１丁目１−１３",
			"place_id": "ChIJk3OOFByTGGAROcgO8tmGlrw",
			"plus_code": {
				"compound_code": "QPJ9+33 日本、東京都北区",
				"global_code": "8Q7XQPJ9+33"
			}
		},
		"related_page": ""
	}, {
		"name": "旧滝野川第六小学校",
		"address": "滝野川5-44-15",
		"call_number": "",
		"capacity": null,
		"geo": {
			"coordinate": {
				"lng": 139.7242406,
				"lat": 35.7487325
			},
			"formatted_address": "日本、〒114-0023 東京都北区滝野川５丁目４４−１５",
			"place_id": "ChIJGZVzWYSSGGARg0OQiDEAWjI",
			"plus_code": {
				"compound_code": "PPXF+FM 日本、東京都北区",
				"global_code": "8Q7XPPXF+FM"
			}
		},
		"related_page": ""
	}, {
		"name": "旧田端中学校",
		"address": "田端6-9-1",
		"call_number": "",
		"capacity": null,
		"geo": {
			"coordinate": {
				"lng": 139.7554554,
				"lat": 35.7412764
			},
			"formatted_address": "日本、〒114-0014 東京都北区田端６丁目９−１",
			"place_id": "ChIJQS52iOuNGGARoV3qD4qTEhQ",
			"plus_code": {
				"compound_code": "PQR4+G5 日本、東京都北区",
				"global_code": "8Q7XPQR4+G5"
			}
		},
		"related_page": ""
	}]
}