{
	"shelters": [{
		"name": "区民・産業プラザ",
		"address": "練馬1丁目17番1号",
		"call_number": "03-3992-5335",
		"capacity": 0,
		"coordinate": {
			"lat": null,
			"lng": null
		},
		"related_page": "https://www.nerima-idc.or.jp/plaza/info/information.html"
	}, {
		"name": "練馬文化センター",
		"address": "練馬1丁目17番37号",
		"call_number": "03-3993-3311",
		"capacity": 0,
		"coordinate": {
			"lat": null,
			"lng": null
		},
		"related_page": "https://www.neribun.or.jp/nerima.html"
	}, {
		"name": "石神井公園区民交流センター",
		"address": "石神井町2丁目14番1号",
		"call_number": "03-5910-3451",
		"capacity": 0,
		"coordinate": {
			"lat": null,
			"lng": null
		},
		"related_page": "http://www.nerimatatemonoshakujii.jp"
	}, {
		"name": "勤労福祉会館",
		"address": "東大泉5丁目40番36号",
		"call_number": "03-3923-5511",
		"capacity": 0,
		"coordinate": {
			"lat": null,
			"lng": null
		},
		"related_page": "https://www.nerima-kinrou.com"
	}, {
		"name": "光が丘区民ホール",
		"address": "光が丘2丁目9番6号",
		"call_number": "03-5997-7712",
		"capacity": 0,
		"coordinate": {
			"lat": null,
			"lng": null
		},
		"related_page": "https://www.city.nerima.tokyo.jp/shisetsu/bunka/kuminhall/hikarigaokakuminnhor.html"
	}, {
		"name": "関区民ホール",
		"address": "関町北1丁目7番2号",
		"call_number": "03-3928-1987",
		"capacity": 0,
		"coordinate": {
			"lat": null,
			"lng": null
		},
		"related_page": "https://www.city.nerima.tokyo.jp/shisetsu/bunka/kuminhall/kita.html"
	}, {
		"name": "生涯学習センター分館",
		"address": "高野台2丁目25番1号",
		"call_number": "03-3904-4881",
		"capacity": 0,
		"coordinate": {
			"lat": null,
			"lng": null
		},
		"related_page": "https://www.city.nerima.tokyo.jp/kankomoyoshi/bunka/bunkan/index.html"
	}, {
		"name": "練馬高等学校",
		"address": "春日町4丁目28番25号",
		"call_number": "03-3990-8643",
		"capacity": 0,
		"coordinate": {
			"lat": null,
			"lng": null
		},
		"related_page": "http://www.nerima-h.metro.tokyo.jp/site/zen/"
	}, {
		"name": "第四商業高等学校",
		"address": "貫井3丁目45番19号",
		"call_number": "03-3990-4221",
		"capacity": 0,
		"coordinate": {
			"lat": null,
			"lng": null
		},
		"related_page": "http://www.daiyonshogyo-h.metro.tokyo.jp/site/zen/"
	}, {
		"name": "練馬工業高等学校",
		"address": "早宮2丁目9番18号",
		"call_number": "03-3932-9251",
		"capacity": 0,
		"coordinate": {
			"lat": null,
			"lng": null
		},
		"related_page": "https://www.metro.ed.jp/nerimakogyo-h/"
	}, {
		"name": "光丘高等学校",
		"address": "旭町2丁目1番35号",
		"call_number": "03-3977-1501",
		"capacity": 0,
		"coordinate": {
			"lat": null,
			"lng": null
		},
		"related_page": "https://www.metro.ed.jp/hikarigaoka-h/"
	}, {
		"name": "ホテルカデンツァ光が丘",
		"address": "高松5丁目8番20号",
		"call_number": "03-5372-4411",
		"capacity": 0,
		"coordinate": {
			"lat": null,
			"lng": null
		},
		"related_page": "https://h-cadenza.jp"
	}, {
		"name": "旭丘小学校",
		"address": "旭丘2丁目21番1号",
		"call_number": "03-3957-2152",
		"capacity": 0,
		"coordinate": {
			"lat": null,
			"lng": null
		},
		"related_page": "http://www.asahigaoka-e.nerima-tky.ed.jp/"
	}, {
		"name": "小竹小学校",
		"address": "小竹町2丁目6番7号",
		"call_number": "03-3956-8391",
		"capacity": 0,
		"coordinate": {
			"lat": null,
			"lng": null
		},
		"related_page": "http://www.kotake-e.nerima-tky.ed.jp/"
	}, {
		"name": "豊玉小学校",
		"address": "豊玉中4丁目2番20号",
		"call_number": "03-3993-4286",
		"capacity": 0,
		"coordinate": {
			"lat": null,
			"lng": null
		},
		"related_page": "http://www.toyotama-e.nerima-tky.ed.jp/"
	}, {
		"name": "豊玉第二小学校",
		"address": "豊玉上2丁目16番1号",
		"call_number": "03-3993-0421",
		"capacity": 0,
		"coordinate": {
			"lat": null,
			"lng": null
		},
		"related_page": "http://www.toyotama2-e.nerima-tky.ed.jp/"
	}, {
		"name": "豊玉東小学校",
		"address": "豊玉北1丁目16番1号",
		"call_number": "03-3993-4217",
		"capacity": 0,
		"coordinate": {
			"lat": null,
			"lng": null
		},
		"related_page": "http://www.toyotama-e-e.nerima-tky.ed.jp/"
	}, {
		"name": "豊玉南小学校",
		"address": "豊玉南2丁目14番1号",
		"call_number": "03-3993-6425",
		"capacity": 0,
		"coordinate": {
			"lat": null,
			"lng": null
		},
		"related_page": "http://www.toyotama-s-e.nerima-tky.ed.jp/"
	}, {
		"name": "中村小学校",
		"address": "中村2丁目8番1号",
		"call_number": "03-3990-4241",
		"capacity": 0,
		"coordinate": {
			"lat": null,
			"lng": null
		},
		"related_page": "http://www.nakamura-e.nerima-tky.ed.jp/"
	}, {
		"name": "中村西小学校",
		"address": "中村北4丁目17番1号",
		"call_number": "03－3990－4237",
		"capacity": 0,
		"coordinate": {
			"lat": null,
			"lng": null
		},
		"related_page": "http://www.nakamura-w-e.nerima-tky.ed.jp/"
	}, {
		"name": "早宮小学校",
		"address": "早宮4丁目10番17号",
		"call_number": "03-3993-5165",
		"capacity": 0,
		"coordinate": {
			"lat": null,
			"lng": null
		},
		"related_page": "http://www.hayamiya-e.nerima-tky.ed.jp/"
	}, {
		"name": "開進第一小学校",
		"address": "早宮2丁目1番31号",
		"call_number": "03-3932-3170",
		"capacity": 0,
		"coordinate": {
			"lat": null,
			"lng": null
		},
		"related_page": "http://www.kaishin1-e.nerima-tky.ed.jp/"
	}, {
		"name": "開進第二小学校",
		"address": "桜台5丁目10番5号",
		"call_number": "03-3993-2425",
		"capacity": 0,
		"coordinate": {
			"lat": null,
			"lng": null
		},
		"related_page": "http://www.kaishin2-e.nerima-tky.ed.jp/"
	}, {
		"name": "開進第三小学校",
		"address": "桜台2丁目18番1号",
		"call_number": "03-3993-4263",
		"capacity": 0,
		"coordinate": {
			"lat": null,
			"lng": null
		},
		"related_page": "http://www.kaishin3-e.nerima-tky.ed.jp/"
	}, {
		"name": "開進第四小学校",
		"address": "羽沢2丁目33番1号",
		"call_number": "03-3993-6153",
		"capacity": 0,
		"coordinate": {
			"lat": null,
			"lng": null
		},
		"related_page": "http://www.kaishin4-e.nerima-tky.ed.jp/"
	}, {
		"name": "仲町小学校",
		"address": "氷川台2丁目18番24号",
		"call_number": "03-3932-5360",
		"capacity": 0,
		"coordinate": {
			"lat": null,
			"lng": null
		},
		"related_page": "http://www.nakamachi-e.nerima-tky.ed.jp/"
	}, {
		"name": "南町小学校",
		"address": "練馬2丁目7番5号",
		"call_number": "03-3993-2438",
		"capacity": 0,
		"coordinate": {
			"lat": null,
			"lng": null
		},
		"related_page": "http://www.minamichou-e.nerima-tky.ed.jp/"
	}, {
		"name": "北町小学校",
		"address": "北町1丁目14番11号",
		"call_number": "03-3932-3296",
		"capacity": 0,
		"coordinate": {
			"lat": null,
			"lng": null
		},
		"related_page": "http://www.kitamachi-e.nerima-tky.ed.jp/"
	}, {
		"name": "北町西小学校",
		"address": "北町7丁目3番8号",
		"call_number": "03-3932-7234",
		"capacity": 0,
		"coordinate": {
			"lat": null,
			"lng": null
		},
		"related_page": "http://www.kitamachi-w-e.nerima-tky.ed.jp/"
	}, {
		"name": "練馬小学校",
		"address": "春日町6丁目11番36号",
		"call_number": "03-3990-4244",
		"capacity": 0,
		"coordinate": {
			"lat": null,
			"lng": null
		},
		"related_page": "http://www.nerima-e.nerima-tky.ed.jp/"
	}, {
		"name": "練馬第二小学校",
		"address": "貫井2丁目31番13号",
		"call_number": "03-3990-4247",
		"capacity": 0,
		"coordinate": {
			"lat": null,
			"lng": null
		},
		"related_page": "http://www.nerima2-e.nerima-tky.ed.jp/"
	}, {
		"name": "練馬第三小学校",
		"address": "貫井1丁目36番15号",
		"call_number": "03-3970-5641",
		"capacity": 0,
		"coordinate": {
			"lat": null,
			"lng": null
		},
		"related_page": "http://www.nerima3-e.nerima-tky.ed.jp/"
	}, {
		"name": "練馬東小学校",
		"address": "春日町1丁目30番11号",
		"call_number": "03-3990-9142",
		"capacity": 0,
		"coordinate": {
			"lat": null,
			"lng": null
		},
		"related_page": "http://www.nerima-e-e.nerima-tky.ed.jp/"
	}, {
		"name": "田柄小学校",
		"address": "田柄2丁目19番19号",
		"call_number": "03-3939-0351",
		"capacity": 0,
		"coordinate": {
			"lat": null,
			"lng": null
		},
		"related_page": "http://www.tagara-e.nerima-tky.ed.jp/"
	}, {
		"name": "田柄第二小学校",
		"address": "田柄1丁目5番27号",
		"call_number": "03-3938-8826",
		"capacity": 0,
		"coordinate": {
			"lat": null,
			"lng": null
		},
		"related_page": "http://www.tagara2-e.nerima-tky.ed.jp/"
	}, {
		"name": "向山小学校",
		"address": "向山2丁目14番11号",
		"call_number": "03-3999-9145",
		"capacity": 0,
		"coordinate": {
			"lat": null,
			"lng": null
		},
		"related_page": "http://www.kouyama-e.nerima-tky.ed.jp/"
	}, {
		"name": "豊溪小学校",
		"address": "土支田2丁目26番28号",
		"call_number": "03-3925-2444",
		"capacity": 0,
		"coordinate": {
			"lat": null,
			"lng": null
		},
		"related_page": "http://www.houkei-e.nerima-tky.ed.jp/"
	}, {
		"name": "旭町小学校",
		"address": "旭町2丁目29番1号",
		"call_number": "03-3939-0362",
		"capacity": 0,
		"coordinate": {
			"lat": null,
			"lng": null
		},
		"related_page": "http://www.asahichou-e.nerima-tky.ed.jp/"
	}, {
		"name": "高松小学校",
		"address": "高松3丁目16番1号",
		"call_number": "03-3999-3376",
		"capacity": 0,
		"coordinate": {
			"lat": null,
			"lng": null
		},
		"related_page": "http://www.takamatsu-e.nerima-tky.ed.jp/"
	}, {
		"name": "春日小学校",
		"address": "春日町5丁目12番1号",
		"call_number": "03-3926-7102",
		"capacity": 0,
		"coordinate": {
			"lat": null,
			"lng": null
		},
		"related_page": "http://www.kasuga-e.nerima-tky.ed.jp/"
	}, {
		"name": "光が丘四季の香小学校",
		"address": "高松5丁目24番1号",
		"call_number": "03-3977-2711",
		"capacity": 0,
		"coordinate": {
			"lat": null,
			"lng": null
		},
		"related_page": "http://www.shikinokaori-e.nerima-tky.ed.jp/"
	}, {
		"name": "光が丘春の風小学校",
		"address": "光が丘7丁目2番1号",
		"call_number": "03-3976-5861",
		"capacity": 0,
		"coordinate": {
			"lat": null,
			"lng": null
		},
		"related_page": "http://www.harunokaze-e.nerima-tky.ed.jp/"
	}, {
		"name": "光が丘夏の雲小学校",
		"address": "光が丘3丁目6番1号",
		"call_number": "03-5998-0501",
		"capacity": 0,
		"coordinate": {
			"lat": null,
			"lng": null
		},
		"related_page": "http://www.natsunokumo-e.nerima-tky.ed.jp/"
	}, {
		"name": "光が丘秋の陽小学校",
		"address": "光が丘2丁目1番1号",
		"call_number": "03-3976-6331",
		"capacity": 0,
		"coordinate": {
			"lat": null,
			"lng": null
		},
		"related_page": "http://www.akinohi-e.nerima-tky.ed.jp/"
	}, {
		"name": "光が丘第八小学校",
		"address": "光が丘1丁目4番1号",
		"call_number": "03-5997-4828",
		"capacity": 0,
		"coordinate": {
			"lat": null,
			"lng": null
		},
		"related_page": "http://www.hikarigaoka8-e.nerima-tky.ed.jp/"
	}, {
		"name": "石神井小学校",
		"address": "石神井台1丁目1番25号",
		"call_number": "03-3997-3277",
		"capacity": 0,
		"coordinate": {
			"lat": null,
			"lng": null
		},
		"related_page": "http://www.shakujii-e.nerima-tky.ed.jp/"
	}, {
		"name": "石神井東小学校",
		"address": "南田中3丁目9番1号",
		"call_number": "03-3997-3312",
		"capacity": 0,
		"coordinate": {
			"lat": null,
			"lng": null
		},
		"related_page": "http://www.shakujii-e-e.nerima-tky.ed.jp/"
	}, {
		"name": "石神井西小学校",
		"address": "関町北1丁目1番5号",
		"call_number": "03-3920-0382",
		"capacity": 0,
		"coordinate": {
			"lat": null,
			"lng": null
		},
		"related_page": "http://www.shakujii-w-e.nerima-tky.ed.jp/"
	}, {
		"name": "石神井台小学校",
		"address": "石神井台8丁目6番33号",
		"call_number": "03-3928-7124",
		"capacity": 0,
		"coordinate": {
			"lat": null,
			"lng": null
		},
		"related_page": "http://www.shakujiidai-e.nerima-tky.ed.jp/"
	}, {
		"name": "上石神井小学校",
		"address": "上石神井4丁目10番9号",
		"call_number": "03-3920-0805",
		"capacity": 0,
		"coordinate": {
			"lat": null,
			"lng": null
		},
		"related_page": "http://www.kamishakujii-e.nerima-tky.ed.jp/"
	}, {
		"name": "上石神井北小学校",
		"address": "石神井台5丁目1番32号",
		"call_number": "03-3920-1011",
		"capacity": 0,
		"coordinate": {
			"lat": null,
			"lng": null
		},
		"related_page": "http://www.kamishakujii-n-e.nerima-tky.ed.jp/"
	}, {
		"name": "下石神井小学校",
		"address": "下石神井2丁目20番18号",
		"call_number": "03-3997-5241",
		"capacity": 0,
		"coordinate": {
			"lat": null,
			"lng": null
		},
		"related_page": "http://www.shimoshakujii-e.nerima-tky.ed.jp/"
	}, {
		"name": "光和小学校",
		"address": "石神井町2丁目16番34号",
		"call_number": "03-3997-3261",
		"capacity": 0,
		"coordinate": {
			"lat": null,
			"lng": null
		},
		"related_page": "http://www.kouwa-e.nerima-tky.ed.jp/"
	}, {
		"name": "谷原小学校",
		"address": "谷原2丁目9番26号",
		"call_number": "03-3997-3271",
		"capacity": 0,
		"coordinate": {
			"lat": null,
			"lng": null
		},
		"related_page": "http://www.yawara-e.nerima-tky.ed.jp/"
	}, {
		"name": "北原小学校",
		"address": "谷原4丁目9番1号",
		"call_number": "03-3904-5172",
		"capacity": 0,
		"coordinate": {
			"lat": null,
			"lng": null
		},
		"related_page": "http://www.kitahara-e.nerima-tky.ed.jp/"
	}, {
		"name": "立野小学校",
		"address": "立野町17番13号",
		"call_number": "03-3920-9101",
		"capacity": 0,
		"coordinate": {
			"lat": null,
			"lng": null
		},
		"related_page": "http://www.tateno-e.nerima-tky.ed.jp/"
	}, {
		"name": "関町小学校",
		"address": "関町北3丁目23番34号",
		"call_number": "03-3929-1290",
		"capacity": 0,
		"coordinate": {
			"lat": null,
			"lng": null
		},
		"related_page": "http://www.sekimachi-e.nerima-tky.ed.jp/"
	}, {
		"name": "関町北小学校",
		"address": "関町北5丁目13番40号",
		"call_number": "03-3920-1027",
		"capacity": 0,
		"coordinate": {
			"lat": null,
			"lng": null
		},
		"related_page": "http://www.sekimachi-n-e.nerima-tky.ed.jp/"
	}, {
		"name": "大泉小学校",
		"address": "東大泉4丁目25番1号",
		"call_number": "03-3924-0144",
		"capacity": 0,
		"coordinate": {
			"lat": null,
			"lng": null
		},
		"related_page": "http://www.ooizumi-e.nerima-tky.ed.jp/"
	}, {
		"name": "大泉第一小学校",
		"address": "大泉町3丁目16番23号",
		"call_number": "03-3925-2455",
		"capacity": 0,
		"coordinate": {
			"lat": null,
			"lng": null
		},
		"related_page": "http://www.ooizumi1-e.nerima-tky.ed.jp/"
	}, {
		"name": "大泉第二小学校",
		"address": "南大泉4丁目29番11号",
		"call_number": "03-3924-2127",
		"capacity": 0,
		"coordinate": {
			"lat": null,
			"lng": null
		},
		"related_page": "http://www.ooizumi2-e.nerima-tky.ed.jp/"
	}, {
		"name": "大泉第三小学校",
		"address": "大泉学園町3丁目22番1号",
		"call_number": "03-3925-2466",
		"capacity": 0,
		"coordinate": {
			"lat": null,
			"lng": null
		},
		"related_page": "http://www.ooizumi3-e.nerima-tky.ed.jp/"
	}, {
		"name": "大泉第四小学校",
		"address": "西大泉1丁目24番1号",
		"call_number": "03-3925-2477",
		"capacity": 0,
		"coordinate": {
			"lat": null,
			"lng": null
		},
		"related_page": "http://www.ooizumi4-e.nerima-tky.ed.jp/"
	}, {
		"name": "大泉第六小学校",
		"address": "南大泉5丁目25番29号",
		"call_number": "03-3925-2471",
		"capacity": 0,
		"coordinate": {
			"lat": null,
			"lng": null
		},
		"related_page": "http://www.ooizumi6-e.nerima-tky.ed.jp/"
	}, {
		"name": "大泉東小学校",
		"address": "東大泉1丁目22番1号",
		"call_number": "03-3922-1355",
		"capacity": 0,
		"coordinate": {
			"lat": null,
			"lng": null
		},
		"related_page": "http://www.ooizumi-e-e.nerima-tky.ed.jp/"
	}, {
		"name": "大泉西小学校",
		"address": "西大泉4丁目25番1号",
		"call_number": "03-3925-5832",
		"capacity": 0,
		"coordinate": {
			"lat": null,
			"lng": null
		},
		"related_page": "http://www.ooizumi-w-e.nerima-tky.ed.jp/"
	}, {
		"name": "大泉南小学校",
		"address": "東大泉6丁目28番1号",
		"call_number": "03-3922-1371",
		"capacity": 0,
		"coordinate": {
			"lat": null,
			"lng": null
		},
		"related_page": "http://www.ooizumi-s-e.nerima-tky.ed.jp/"
	}, {
		"name": "大泉北小学校",
		"address": "大泉町4丁目28番22号",
		"call_number": "03-3925-5912",
		"capacity": 0,
		"coordinate": {
			"lat": null,
			"lng": null
		},
		"related_page": "http://www.ooizumi-n-e.nerima-tky.ed.jp/"
	}, {
		"name": "大泉学園小学校",
		"address": "大泉学園町4丁目7番1号",
		"call_number": "03-3923-0006",
		"capacity": 0,
		"coordinate": {
			"lat": null,
			"lng": null
		},
		"related_page": "http://www.gakuen-e.nerima-tky.ed.jp/"
	}, {
		"name": "大泉学園緑小学校",
		"address": "大泉学園町5丁目11番47号",
		"call_number": "03-3925-7233",
		"capacity": 0,
		"coordinate": {
			"lat": null,
			"lng": null
		},
		"related_page": "http://www.gakuen-midori-e.nerima-tky.ed.jp/"
	}, {
		"name": "大泉桜学園",
		"address": "大泉学園町9丁目2番1号",
		"call_number": "03-3924-1126",
		"capacity": 0,
		"coordinate": {
			"lat": null,
			"lng": null
		},
		"related_page": "http://www.sakuragakuen.nerima-tky.ed.jp/"
	}, {
		"name": "泉新小学校",
		"address": "三原台3丁目18番30号",
		"call_number": "03-3925-4343",
		"capacity": 0,
		"coordinate": {
			"lat": null,
			"lng": null
		},
		"related_page": "http://www.senshin-e.nerima-tky.ed.jp/"
	}, {
		"name": "橋戸小学校",
		"address": "大泉町2丁目11番25号",
		"call_number": "03-3925-8620",
		"capacity": 0,
		"coordinate": {
			"lat": null,
			"lng": null
		},
		"related_page": "http://www.hashido-e.nerima-tky.ed.jp/"
	}, {
		"name": "南田中小学校",
		"address": "南田中5丁目15番37号",
		"call_number": "03-3997-1145",
		"capacity": 0,
		"coordinate": {
			"lat": null,
			"lng": null
		},
		"related_page": "http://www.minamitanaka-e.nerima-tky.ed.jp/"
	}, {
		"name": "南が丘小学校",
		"address": "南田中2丁目13番1号",
		"call_number": "03-3904-1282",
		"capacity": 0,
		"coordinate": {
			"lat": null,
			"lng": null
		},
		"related_page": "http://www.minamigaoka-e.nerima-tky.ed.jp/"
	}, {
		"name": "富士見台小学校",
		"address": "富士見台4丁目16番10号",
		"call_number": "03-3998-6351",
		"capacity": 0,
		"coordinate": {
			"lat": null,
			"lng": null
		},
		"related_page": "http://www.fujimidai-e.nerima-tky.ed.jp/"
	}, {
		"name": "八坂小学校",
		"address": "土支田4丁目48番1号",
		"call_number": "03-3922-7625",
		"capacity": 0,
		"coordinate": {
			"lat": null,
			"lng": null
		},
		"related_page": "http://www.yasaka-e.nerima-tky.ed.jp/"
	}, {
		"name": "旭丘中学校",
		"address": "旭丘2丁目40番1号",
		"call_number": "03-3957-3133",
		"capacity": 0,
		"coordinate": {
			"lat": null,
			"lng": null
		},
		"related_page": "http://www.asahigaoka-j.nerima-tky.ed.jp/"
	}, {
		"name": "豊玉中学校",
		"address": "豊玉南2丁目1番20号",
		"call_number": "03-3994-1451",
		"capacity": 0,
		"coordinate": {
			"lat": null,
			"lng": null
		},
		"related_page": "http://www.toyotama-j.nerima-tky.ed.jp/"
	}, {
		"name": "豊玉第二中学校",
		"address": "豊玉北2丁目24番5号",
		"call_number": "03-3993-4212",
		"capacity": 0,
		"coordinate": {
			"lat": null,
			"lng": null
		},
		"related_page": "http://www.toyotama2-j.nerima-tky.ed.jp/"
	}, {
		"name": "中村中学校",
		"address": "中村南1丁目32番21号",
		"call_number": "03-3990-4436",
		"capacity": 0,
		"coordinate": {
			"lat": null,
			"lng": null
		},
		"related_page": "http://www.nakamura-j.nerima-tky.ed.jp/"
	}, {
		"name": "開進第一中学校",
		"address": "早宮1丁目16番50号",
		"call_number": "03-3993-2417",
		"capacity": 0,
		"coordinate": {
			"lat": null,
			"lng": null
		},
		"related_page": "http://www.kaishin1-j.nerima-tky.ed.jp/"
	}, {
		"name": "開進第二中学校",
		"address": "練馬2丁目27番28号",
		"call_number": "03-3993-1348",
		"capacity": 0,
		"coordinate": {
			"lat": null,
			"lng": null
		},
		"related_page": "http://www.kaishin2-j.nerima-tky.ed.jp/"
	}, {
		"name": "開進第三中学校",
		"address": "桜台3丁目28番1号",
		"call_number": "03-3993-4265",
		"capacity": 0,
		"coordinate": {
			"lat": null,
			"lng": null
		},
		"related_page": "http://www.kaishin3-j.nerima-tky.ed.jp/"
	}, {
		"name": "開進第四中学校",
		"address": "羽沢3丁目24番1号",
		"call_number": "03-3993-1481",
		"capacity": 0,
		"coordinate": {
			"lat": null,
			"lng": null
		},
		"related_page": "http://www.kaishin4-j.nerima-tky.ed.jp/"
	}, {
		"name": "北町中学校",
		"address": "北町3丁目1番34号",
		"call_number": "03-3932-7231",
		"capacity": 0,
		"coordinate": {
			"lat": null,
			"lng": null
		},
		"related_page": "http://www.kitamachi-j.nerima-tky.ed.jp/"
	}, {
		"name": "練馬中学校",
		"address": "高松1丁目24番1号",
		"call_number": "03-3990-5451",
		"capacity": 0,
		"coordinate": {
			"lat": null,
			"lng": null
		},
		"related_page": "http://www.nerima-j.nerima-tky.ed.jp/"
	}, {
		"name": "練馬東中学校",
		"address": "春日町2丁目14番22号",
		"call_number": "03-3998-0231",
		"capacity": 0,
		"coordinate": {
			"lat": null,
			"lng": null
		},
		"related_page": "http://www.nerima-e-j.nerima-tky.ed.jp/"
	}, {
		"name": "貫井中学校",
		"address": "貫井2丁目14番13号",
		"call_number": "03-3990-6412",
		"capacity": 0,
		"coordinate": {
			"lat": null,
			"lng": null
		},
		"related_page": "http://www.nukui-j.nerima-tky.ed.jp/"
	}, {
		"name": "田柄中学校",
		"address": "田柄3丁目3番1号",
		"call_number": "03-3990-4403",
		"capacity": 0,
		"coordinate": {
			"lat": null,
			"lng": null
		},
		"related_page": "http://www.tagara-j.nerima-tky.ed.jp/"
	}, {
		"name": "豊渓中学校",
		"address": "旭町3丁目5番10号",
		"call_number": "03-3939-0245",
		"capacity": 0,
		"coordinate": {
			"lat": null,
			"lng": null
		},
		"related_page": "http://www.houkei-j.nerima-tky.ed.jp/"
	}, {
		"name": "光が丘第一中学校",
		"address": "光が丘6丁目5番1号",
		"call_number": "03-3976-5871",
		"capacity": 0,
		"coordinate": {
			"lat": null,
			"lng": null
		},
		"related_page": "http://www.hikarigaoka1-j.nerima-tky.ed.jp/"
	}, {
		"name": "光が丘第二中学校",
		"address": "光が丘7丁目1番1号",
		"call_number": "03-3976-9202",
		"capacity": 0,
		"coordinate": {
			"lat": null,
			"lng": null
		},
		"related_page": "http://www.hikarigaoka2-j.nerima-tky.ed.jp/"
	}, {
		"name": "光が丘第三中学校",
		"address": "光が丘3丁目2番1号",
		"call_number": "03-3977-3521",
		"capacity": 0,
		"coordinate": {
			"lat": null,
			"lng": null
		},
		"related_page": "http://www.hikarigaoka3-j.nerima-tky.ed.jp/"
	}, {
		"name": "石神井中学校",
		"address": "石神井台1丁目32番1号",
		"call_number": "03-3997-3131",
		"capacity": 0,
		"coordinate": {
			"lat": null,
			"lng": null
		},
		"related_page": "http://www.shakujii-j.nerima-tky.ed.jp/"
	}, {
		"name": "石神井東中学校",
		"address": "高野台1丁目8番34号",
		"call_number": "03-3996-2157",
		"capacity": 0,
		"coordinate": {
			"lat": null,
			"lng": null
		},
		"related_page": "http://www.shakujii-e-j.nerima-tky.ed.jp/"
	}, {
		"name": "石神井西中学校",
		"address": "関町南3丁目10番3号",
		"call_number": "03-3920-1034",
		"capacity": 0,
		"coordinate": {
			"lat": null,
			"lng": null
		},
		"related_page": "http://www.shakujii-w-j.nerima-tky.ed.jp/"
	}, {
		"name": "石神井南中学校",
		"address": "下石神井2丁目7番23号",
		"call_number": "03-3997-3315",
		"capacity": 0,
		"coordinate": {
			"lat": null,
			"lng": null
		},
		"related_page": "http://www.shakujii-s-j.nerima-tky.ed.jp/"
	}, {
		"name": "上石神井中学校",
		"address": "上石神井4丁目15番27号",
		"call_number": "03-3920-1126",
		"capacity": 0,
		"coordinate": {
			"lat": null,
			"lng": null
		},
		"related_page": "http://www.kamishakujii-j.nerima-tky.ed.jp/"
	}, {
		"name": "南が丘中学校",
		"address": "南田中4丁目8番23号",
		"call_number": "03-3904-5782",
		"capacity": 0,
		"coordinate": {
			"lat": null,
			"lng": null
		},
		"related_page": "http://www.minamigaoka-j.nerima-tky.ed.jp/"
	}, {
		"name": "谷原中学校",
		"address": "谷原4丁目10番5号",
		"call_number": "03-3995-8036",
		"capacity": 0,
		"coordinate": {
			"lat": null,
			"lng": null
		},
		"related_page": "http://www.yawara-j.nerima-tky.ed.jp/"
	}, {
		"name": "三原台中学校",
		"address": "三原台3丁目13番41号",
		"call_number": "03-3925-9564",
		"capacity": 0,
		"coordinate": {
			"lat": null,
			"lng": null
		},
		"related_page": "http://www.miharadai-j.nerima-tky.ed.jp/"
	}, {
		"name": "大泉中学校",
		"address": "東大泉4丁目27番35号",
		"call_number": "03-3924-0771",
		"capacity": 0,
		"coordinate": {
			"lat": null,
			"lng": null
		},
		"related_page": "http://www.ooizumi-j.nerima-tky.ed.jp/"
	}, {
		"name": "大泉第二中学校",
		"address": "東大泉6丁目21番1号",
		"call_number": "03-3922-0165",
		"capacity": 0,
		"coordinate": {
			"lat": null,
			"lng": null
		},
		"related_page": "http://www.ooizumi2-j.nerima-tky.ed.jp/"
	}, {
		"name": "大泉西中学校",
		"address": "西大泉3丁目19番27号",
		"call_number": "03-3921-7101",
		"capacity": 0,
		"coordinate": {
			"lat": null,
			"lng": null
		},
		"related_page": "http://www.ooizumi-w-j.nerima-tky.ed.jp/"
	}, {
		"name": "大泉北中学校",
		"address": "大泉町5丁目4番32号",
		"call_number": "03-3925-9230",
		"capacity": 0,
		"coordinate": {
			"lat": null,
			"lng": null
		},
		"related_page": "http://www.ooizumi-n-j.nerima-tky.ed.jp/"
	}, {
		"name": "大泉学園中学校",
		"address": "大泉学園町4丁目17番32号",
		"call_number": "03-3925-4492",
		"capacity": 0,
		"coordinate": {
			"lat": null,
			"lng": null
		},
		"related_page": "http://www.gakuen-j.nerima-tky.ed.jp/"
	}, {
		"name": "関中学校",
		"address": "関町北4丁目34番23号",
		"call_number": "03-3929-0048",
		"capacity": 0,
		"coordinate": {
			"lat": null,
			"lng": null
		},
		"related_page": "http://www.seki-j.nerima-tky.ed.jp/"
	}, {
		"name": "八坂中学校",
		"address": "土支田4丁目47番21号",
		"call_number": "03-3924-0399",
		"capacity": 0,
		"coordinate": {
			"lat": null,
			"lng": null
		},
		"related_page": "http://www.yasaka-j.nerima-tky.ed.jp/"
	}]
}