{
	"shelters": [{
		"name": "区民・産業プラザ",
		"address": "練馬1丁目17番1号",
		"call_number": "03-3992-5335",
		"capacity": null,
		"geo": {
			"coordinate": {
				"lng": 139.653358,
				"lat": 35.7382309
			},
			"formatted_address": "日本、〒176-0001 東京都練馬区練馬１丁目１７−１",
			"place_id": "ChIJswfQDAntGGARMKzuRDp7Fo4",
			"plus_code": {
				"compound_code": "PMQ3+78 日本、東京都練馬区",
				"global_code": "8Q7XPMQ3+78"
			}
		},
		"related_page": "https://www.nerima-idc.or.jp/plaza/info/information.html"
	}, {
		"name": "練馬文化センター",
		"address": "練馬1丁目17番37号",
		"call_number": "03-3993-3311",
		"capacity": null,
		"geo": {
			"coordinate": {
				"lng": 139.6537502,
				"lat": 35.7393808
			},
			"formatted_address": "日本、〒176-0001 東京都練馬区練馬１丁目１７−３７",
			"place_id": "ChIJ6ffaHQntGGARr5hpTNpcjlo",
			"plus_code": {
				"compound_code": "PMQ3+QG 日本、東京都練馬区",
				"global_code": "8Q7XPMQ3+QG"
			}
		},
		"related_page": "https://www.neribun.or.jp/nerima.html"
	}, {
		"name": "石神井公園区民交流センター",
		"address": "石神井町2丁目14番1号",
		"call_number": "03-5910-3451",
		"capacity": null,
		"geo": {
			"coordinate": {
				"lng": 139.6075732,
				"lat": 35.7442705
			},
			"formatted_address": "日本、〒177-0041 東京都練馬区石神井町２丁目１４−１",
			"place_id": "ChIJ273BpZ3uGGARWgMP0kbymLw",
			"plus_code": {
				"compound_code": "PJV5+P2 日本、東京都練馬区",
				"global_code": "8Q7XPJV5+P2"
			}
		},
		"related_page": "http://www.nerimatatemonoshakujii.jp"
	}, {
		"name": "勤労福祉会館",
		"address": "東大泉5丁目40番36号",
		"call_number": "03-3923-5511",
		"capacity": null,
		"geo": {
			"coordinate": {
				"lng": 139.5876194,
				"lat": 35.7481795
			},
			"formatted_address": "日本、〒178-0063 東京都練馬区東大泉５丁目４０−３６",
			"place_id": "ChIJzV37PsfuGGARVPD500rgH2U",
			"plus_code": {
				"compound_code": "PHXQ+72 日本、東京都練馬区",
				"global_code": "8Q7XPHXQ+72"
			}
		},
		"related_page": "https://www.nerima-kinrou.com"
	}, {
		"name": "光が丘区民ホール",
		"address": "光が丘2丁目9番6号",
		"call_number": "03-5997-7712",
		"capacity": null,
		"geo": {
			"coordinate": {
				"lng": 139.6297476,
				"lat": 35.7593751
			},
			"formatted_address": "日本、〒179-0072 東京都練馬区光が丘２丁目９−６",
			"place_id": "ChIJhS-o_z_sGGARZTCBBAm7Qf8",
			"plus_code": {
				"compound_code": "QJ5H+QV 日本、東京都練馬区",
				"global_code": "8Q7XQJ5H+QV"
			}
		},
		"related_page": "https://www.city.nerima.tokyo.jp/shisetsu/bunka/kuminhall/hikarigaokakuminnhor.html"
	}, {
		"name": "関区民ホール",
		"address": "関町北1丁目7番2号",
		"call_number": "03-3928-1987",
		"capacity": null,
		"geo": {
			"coordinate": {
				"lng": 139.5777523,
				"lat": 35.7245913
			},
			"formatted_address": "日本、〒177-0051 東京都練馬区関町北１丁目７−２",
			"place_id": "ChIJwSyyjPnuGGARPx3e_IUeJhE",
			"plus_code": {
				"compound_code": "PHFH+R4 日本、東京都練馬区",
				"global_code": "8Q7XPHFH+R4"
			}
		},
		"related_page": "https://www.city.nerima.tokyo.jp/shisetsu/bunka/kuminhall/kita.html"
	}, {
		"name": "生涯学習センター分館",
		"address": "高野台2丁目25番1号",
		"call_number": "03-3904-4881",
		"capacity": null,
		"geo": {
			"coordinate": {
				"lng": 139.6211584,
				"lat": 35.7480571
			},
			"formatted_address": "日本、〒177-0033 東京都練馬区高野台２丁目２５−１",
			"place_id": "ChIJub_ElDrsGGARweXmSHgjGJw",
			"plus_code": {
				"compound_code": "PJXC+6F 日本、東京都練馬区",
				"global_code": "8Q7XPJXC+6F"
			}
		},
		"related_page": "https://www.city.nerima.tokyo.jp/kankomoyoshi/bunka/bunkan/index.html"
	}, {
		"name": "練馬高等学校",
		"address": "春日町4丁目28番25号",
		"call_number": "03-3990-8643",
		"capacity": null,
		"geo": {
			"coordinate": {
				"lng": 139.6424317,
				"lat": 35.7572512
			},
			"formatted_address": "日本、〒179-0074 東京都練馬区春日町４丁目２８−２５",
			"place_id": "ChIJbRL0-lrsGGARD0LfXDRNxvQ",
			"plus_code": {
				"compound_code": "QJ4R+WX 日本、東京都練馬区",
				"global_code": "8Q7XQJ4R+WX"
			}
		},
		"related_page": "http://www.nerima-h.metro.tokyo.jp/site/zen/"
	}, {
		"name": "第四商業高等学校",
		"address": "貫井3丁目45番19号",
		"call_number": "03-3990-4221",
		"capacity": null,
		"geo": {
			"coordinate": {
				"lng": 139.6262814,
				"lat": 35.7394126
			},
			"formatted_address": "日本、〒176-0021 東京都練馬区貫井３丁目４５−１９",
			"place_id": "ChIJd8tAOMvtGGARPiTz5D53AFg",
			"plus_code": {
				"compound_code": "PJQG+QG 日本、東京都練馬区",
				"global_code": "8Q7XPJQG+QG"
			}
		},
		"related_page": "http://www.daiyonshogyo-h.metro.tokyo.jp/site/zen/"
	}, {
		"name": "練馬工業高等学校",
		"address": "早宮2丁目9番18号",
		"call_number": "03-3932-9251",
		"capacity": null,
		"geo": {
			"coordinate": {
				"lng": 139.6547176,
				"lat": 35.7545941
			},
			"formatted_address": "日本、〒179-0085 東京都練馬区早宮２丁目９−１８",
			"place_id": "ChIJW0-uvf7sGGARQk6dHpTw9Xg",
			"plus_code": {
				"compound_code": "QM33+RV 日本、東京都練馬区",
				"global_code": "8Q7XQM33+RV"
			}
		},
		"related_page": "https://www.metro.ed.jp/nerimakogyo-h/"
	}, {
		"name": "光丘高等学校",
		"address": "旭町2丁目1番35号",
		"call_number": "03-3977-1501",
		"capacity": null,
		"geo": {
			"coordinate": {
				"lng": 139.6249421,
				"lat": 35.7673357
			},
			"formatted_address": "日本、〒179-0071 東京都練馬区旭町２丁目１−３５",
			"place_id": "ChIJ0-hPCA7sGGAR-DmyAJ4ARaY",
			"plus_code": {
				"compound_code": "QJ8F+WX 日本、東京都練馬区",
				"global_code": "8Q7XQJ8F+WX"
			}
		},
		"related_page": "https://www.metro.ed.jp/hikarigaoka-h/"
	}, {
		"name": "ホテルカデンツァ光が丘",
		"address": "高松5丁目8番20号",
		"call_number": "03-5372-4411",
		"capacity": null,
		"geo": {
			"coordinate": {
				"lng": 139.6210606,
				"lat": 35.7560447
			},
			"formatted_address": "日本、〒179-0075 東京都練馬区高松５丁目８−２０",
			"place_id": "ChIJy0bHaT3sGGAR8xejG7dolok",
			"plus_code": {
				"compound_code": "QJ4C+CC 日本、東京都練馬区",
				"global_code": "8Q7XQJ4C+CC"
			}
		},
		"related_page": "https://h-cadenza.jp"
	}, {
		"name": "旭丘小学校",
		"address": "旭丘2丁目21番1号",
		"call_number": "03-3957-2152",
		"capacity": null,
		"geo": {
			"coordinate": {
				"lng": 139.6773327,
				"lat": 35.7367659
			},
			"formatted_address": "日本、〒176-0005 東京都練馬区旭丘２丁目２１−１",
			"place_id": "ChIJyYVyF0TtGGARewQ8Q-jEyWw",
			"plus_code": {
				"compound_code": "PMPG+PW 日本、東京都練馬区",
				"global_code": "8Q7XPMPG+PW"
			}
		},
		"related_page": "http://www.asahigaoka-e.nerima-tky.ed.jp/"
	}, {
		"name": "小竹小学校",
		"address": "小竹町2丁目6番7号",
		"call_number": "03-3956-8391",
		"capacity": null,
		"geo": {
			"coordinate": {
				"lng": 139.6800452,
				"lat": 35.7440216
			},
			"formatted_address": "日本、〒176-0004 東京都練馬区小竹町２丁目６−７",
			"place_id": "ChIJSesZQDjtGGARxVo9QiB6zD4",
			"plus_code": {
				"compound_code": "PMVJ+J2 日本、東京都練馬区",
				"global_code": "8Q7XPMVJ+J2"
			}
		},
		"related_page": "http://www.kotake-e.nerima-tky.ed.jp/"
	}, {
		"name": "豊玉小学校",
		"address": "豊玉中4丁目2番20号",
		"call_number": "03-3993-4286",
		"capacity": null,
		"geo": {
			"coordinate": {
				"lng": 139.6517504,
				"lat": 35.7328884
			},
			"formatted_address": "日本、〒176-0013 東京都練馬区豊玉中４丁目２−２０",
			"place_id": "ChIJ6bZglQrtGGARayDPiPgPL0Q",
			"plus_code": {
				"compound_code": "PMM2+5P 日本、東京都練馬区",
				"global_code": "8Q7XPMM2+5P"
			}
		},
		"related_page": "http://www.toyotama-e.nerima-tky.ed.jp/"
	}, {
		"name": "豊玉第二小学校",
		"address": "豊玉上2丁目16番1号",
		"call_number": "03-3993-0421",
		"capacity": null,
		"geo": {
			"coordinate": {
				"lng": 139.6620819,
				"lat": 35.7374411
			},
			"formatted_address": "日本、〒176-0011 東京都練馬区豊玉上２丁目１６−１",
			"place_id": "ChIJwx795RLtGGARmMv5Jcbyk1s",
			"plus_code": {
				"compound_code": "PMP6+XR 日本、東京都練馬区",
				"global_code": "8Q7XPMP6+XR"
			}
		},
		"related_page": "http://www.toyotama2-e.nerima-tky.ed.jp/"
	}, {
		"name": "豊玉東小学校",
		"address": "豊玉北1丁目16番1号",
		"call_number": "03-3993-4217",
		"capacity": null,
		"geo": {
			"coordinate": {
				"lng": 139.6682102,
				"lat": 35.732721
			},
			"formatted_address": "日本、〒176-0012 東京都練馬区豊玉北１丁目１６−１",
			"place_id": "ChIJabwXdGntGGAR2tprwJjPe-M",
			"plus_code": {
				"compound_code": "PMM9+37 日本、東京都練馬区",
				"global_code": "8Q7XPMM9+37"
			}
		},
		"related_page": "http://www.toyotama-e-e.nerima-tky.ed.jp/"
	}, {
		"name": "豊玉南小学校",
		"address": "豊玉南2丁目14番1号",
		"call_number": "03-3993-6425",
		"capacity": null,
		"geo": {
			"coordinate": {
				"lng": 139.6564136,
				"lat": 35.7277979
			},
			"formatted_address": "日本、〒176-0014 東京都練馬区豊玉南２丁目１４−１",
			"place_id": "ChIJ7VTeOnHtGGARR6koyF5DtFo",
			"plus_code": {
				"compound_code": "PMH4+4H 日本、東京都練馬区",
				"global_code": "8Q7XPMH4+4H"
			}
		},
		"related_page": "http://www.toyotama-s-e.nerima-tky.ed.jp/"
	}, {
		"name": "中村小学校",
		"address": "中村2丁目8番1号",
		"call_number": "03-3990-4241",
		"capacity": null,
		"geo": {
			"coordinate": {
				"lng": 139.6439065,
				"lat": 35.7311764
			},
			"formatted_address": "日本、〒176-0024 東京都練馬区中村２丁目８−１",
			"place_id": "ChIJeSE8yqPtGGARXPqRKV-Szmk",
			"plus_code": {
				"compound_code": "PJJV+FH 日本、東京都練馬区",
				"global_code": "8Q7XPJJV+FH"
			}
		},
		"related_page": "http://www.nakamura-e.nerima-tky.ed.jp/"
	}, {
		"name": "中村西小学校",
		"address": "中村北4丁目17番1号",
		"call_number": "03－3990－4237",
		"capacity": null,
		"geo": {
			"coordinate": {
				"lng": 139.6350486,
				"lat": 35.7342314
			},
			"formatted_address": "日本、〒176-0023 東京都練馬区中村北４丁目１７−１",
			"place_id": "ChIJnxZ6ALrtGGARCXKi4hwxIho",
			"plus_code": {
				"compound_code": "PJMP+M2 日本、東京都練馬区",
				"global_code": "8Q7XPJMP+M2"
			}
		},
		"related_page": "http://www.nakamura-w-e.nerima-tky.ed.jp/"
	}, {
		"name": "早宮小学校",
		"address": "早宮4丁目10番17号",
		"call_number": "03-3993-5165",
		"capacity": null,
		"geo": {
			"coordinate": {
				"lng": 139.6511594,
				"lat": 35.7522503
			},
			"formatted_address": "日本、〒179-0085 東京都練馬区早宮４丁目１０−１７",
			"place_id": "ChIJ-QGCd__sGGAR_2oiCblqzuw",
			"plus_code": {
				"compound_code": "QM22+WF 日本、東京都練馬区",
				"global_code": "8Q7XQM22+WF"
			}
		},
		"related_page": "http://www.hayamiya-e.nerima-tky.ed.jp/"
	}, {
		"name": "開進第一小学校",
		"address": "早宮2丁目1番31号",
		"call_number": "03-3932-3170",
		"capacity": null,
		"geo": {
			"coordinate": {
				"lng": 139.6576125,
				"lat": 35.75465190000001
			},
			"formatted_address": "日本、〒179-0085 東京都練馬区早宮２丁目１−３１",
			"place_id": "ChIJz9B_VfzsGGARP7fUwjN8uMY",
			"plus_code": {
				"compound_code": "QM35+V2 日本、東京都練馬区",
				"global_code": "8Q7XQM35+V2"
			}
		},
		"related_page": "http://www.kaishin1-e.nerima-tky.ed.jp/"
	}, {
		"name": "開進第二小学校",
		"address": "桜台5丁目10番5号",
		"call_number": "03-3993-2425",
		"capacity": null,
		"geo": {
			"coordinate": {
				"lng": 139.6581119,
				"lat": 35.7421972
			},
			"formatted_address": "日本、〒176-0002 東京都練馬区桜台５丁目１０−５",
			"place_id": "ChIJX6cOpQ_tGGART2clzZgz80s",
			"plus_code": {
				"compound_code": "PMR5+V6 日本、東京都練馬区",
				"global_code": "8Q7XPMR5+V6"
			}
		},
		"related_page": "http://www.kaishin2-e.nerima-tky.ed.jp/"
	}, {
		"name": "開進第三小学校",
		"address": "桜台2丁目18番1号",
		"call_number": "03-3993-4263",
		"capacity": null,
		"geo": {
			"coordinate": {
				"lng": 139.6666925,
				"lat": 35.7428385
			},
			"formatted_address": "日本、〒176-0002 東京都練馬区桜台２丁目１８−１",
			"place_id": "ChIJv9yPpBbtGGAR1VXyf67TWvM",
			"plus_code": {
				"compound_code": "PMV8+4M 日本、東京都練馬区",
				"global_code": "8Q7XPMV8+4M"
			}
		},
		"related_page": "http://www.kaishin3-e.nerima-tky.ed.jp/"
	}, {
		"name": "開進第四小学校",
		"address": "羽沢2丁目33番1号",
		"call_number": "03-3993-6153",
		"capacity": null,
		"geo": {
			"coordinate": {
				"lng": 139.6716914,
				"lat": 35.7480907
			},
			"formatted_address": "日本、〒176-0003 東京都練馬区羽沢２丁目３３−１",
			"place_id": "ChIJsW5zQz3tGGARxNHKg4atasE",
			"plus_code": {
				"compound_code": "PMXC+6M 日本、東京都練馬区",
				"global_code": "8Q7XPMXC+6M"
			}
		},
		"related_page": "http://www.kaishin4-e.nerima-tky.ed.jp/"
	}, {
		"name": "仲町小学校",
		"address": "氷川台2丁目18番24号",
		"call_number": "03-3932-5360",
		"capacity": null,
		"geo": {
			"coordinate": {
				"lng": 139.6674842,
				"lat": 35.758041
			},
			"formatted_address": "日本、〒179-0084 東京都練馬区氷川台２丁目１８−２４",
			"place_id": "ChIJ86-IuuHsGGAR6SGtcIkjW8o",
			"plus_code": {
				"compound_code": "QM58+6X 日本、東京都練馬区",
				"global_code": "8Q7XQM58+6X"
			}
		},
		"related_page": "http://www.nakamachi-e.nerima-tky.ed.jp/"
	}, {
		"name": "南町小学校",
		"address": "練馬2丁目7番5号",
		"call_number": "03-3993-2438",
		"capacity": null,
		"geo": {
			"coordinate": {
				"lng": 139.659766,
				"lat": 35.7306426
			},
			"formatted_address": "日本、〒176-0013 東京都練馬区豊玉中２丁目７−５",
			"place_id": "ChIJI_VhHHLtGGARN8xgAn_30lY",
			"plus_code": {
				"compound_code": "PMJ5+7W 日本、東京都練馬区",
				"global_code": "8Q7XPMJ5+7W"
			}
		},
		"related_page": "http://www.minamichou-e.nerima-tky.ed.jp/"
	}, {
		"name": "北町小学校",
		"address": "北町1丁目14番11号",
		"call_number": "03-3932-3296",
		"capacity": null,
		"geo": {
			"coordinate": {
				"lng": 139.664222,
				"lat": 35.7653547
			},
			"formatted_address": "日本、〒179-0081 東京都練馬区北町１丁目１４−１１",
			"place_id": "ChIJSZDuau_sGGARklffMMDHdXI",
			"plus_code": {}
		},
		"related_page": "http://www.kitamachi-e.nerima-tky.ed.jp/"
	}, {
		"name": "北町西小学校",
		"address": "北町7丁目3番8号",
		"call_number": "03-3932-7234",
		"capacity": null,
		"geo": {
			"coordinate": {
				"lng": 139.6535762,
				"lat": 35.7617722
			},
			"formatted_address": "日本、〒179-0081 東京都練馬区北町７丁目３−８",
			"place_id": "ChIJI1mNE_fsGGAR9Ij0EntldDw",
			"plus_code": {
				"compound_code": "QM63+PC 日本、東京都練馬区",
				"global_code": "8Q7XQM63+PC"
			}
		},
		"related_page": "http://www.kitamachi-w-e.nerima-tky.ed.jp/"
	}, {
		"name": "練馬小学校",
		"address": "春日町6丁目11番36号",
		"call_number": "03-3990-4244",
		"capacity": null,
		"geo": {
			"coordinate": {
				"lng": 139.6361382,
				"lat": 35.7526173
			},
			"formatted_address": "日本、〒179-0074 東京都練馬区春日町６丁目１１−３６",
			"place_id": "ChIJE9BnXE_sGGARWYSFv-i0aE4",
			"plus_code": {
				"compound_code": "QJ3P+2F 日本、東京都練馬区",
				"global_code": "8Q7XQJ3P+2F"
			}
		},
		"related_page": "http://www.nerima-e.nerima-tky.ed.jp/"
	}, {
		"name": "練馬第二小学校",
		"address": "貫井2丁目31番13号",
		"call_number": "03-3990-4247",
		"capacity": null,
		"geo": {
			"coordinate": {
				"lng": 139.6336762,
				"lat": 35.7415758
			},
			"formatted_address": "日本、〒176-0021 東京都練馬区貫井２丁目３１−１３",
			"place_id": "ChIJqTs-67TtGGAR6D7L4Oc-Ygc",
			"plus_code": {
				"compound_code": "PJRM+JF 日本、東京都練馬区",
				"global_code": "8Q7XPJRM+JF"
			}
		},
		"related_page": "http://www.nerima2-e.nerima-tky.ed.jp/"
	}, {
		"name": "練馬第三小学校",
		"address": "貫井1丁目36番15号",
		"call_number": "03-3970-5641",
		"capacity": null,
		"geo": {
			"coordinate": {
				"lng": 139.6354437,
				"lat": 35.737236
			},
			"formatted_address": "日本、〒176-0021 東京都練馬区貫井１丁目３６−１５",
			"place_id": "ChIJuxwQN7HtGGARQ92KU4fM_ps",
			"plus_code": {
				"compound_code": "PJPP+V5 日本、東京都練馬区",
				"global_code": "8Q7XPJPP+V5"
			}
		},
		"related_page": "http://www.nerima3-e.nerima-tky.ed.jp/"
	}, {
		"name": "練馬東小学校",
		"address": "春日町1丁目30番11号",
		"call_number": "03-3990-9142",
		"capacity": null,
		"geo": {
			"coordinate": {
				"lng": 139.6477201,
				"lat": 35.7524235
			},
			"formatted_address": "日本、〒179-0074 東京都練馬区春日町１丁目３０−１１",
			"place_id": "ChIJLQN6MlTsGGARDpDYTD_MczQ",
			"plus_code": {
				"compound_code": "QJ2X+X3 日本、東京都練馬区",
				"global_code": "8Q7XQJ2X+X3"
			}
		},
		"related_page": "http://www.nerima-e-e.nerima-tky.ed.jp/"
	}, {
		"name": "田柄小学校",
		"address": "田柄2丁目19番19号",
		"call_number": "03-3939-0351",
		"capacity": null,
		"geo": {
			"coordinate": {
				"lng": 139.6438562,
				"lat": 35.7662464
			},
			"formatted_address": "日本、〒179-0073 東京都練馬区田柄２丁目１９−１９",
			"place_id": "ChIJGT8eamfsGGARWBxXGX5laWQ",
			"plus_code": {
				"compound_code": "QJ8V+FG 日本、東京都練馬区",
				"global_code": "8Q7XQJ8V+FG"
			}
		},
		"related_page": "http://www.tagara-e.nerima-tky.ed.jp/"
	}, {
		"name": "田柄第二小学校",
		"address": "田柄1丁目5番27号",
		"call_number": "03-3938-8826",
		"capacity": null,
		"geo": {
			"coordinate": {
				"lng": 139.6423071,
				"lat": 35.758914
			},
			"formatted_address": "日本、〒179-0073 東京都練馬区田柄１丁目５−２７",
			"place_id": "ChIJT-iydVvsGGAROWWqRNMD7NM",
			"plus_code": {
				"compound_code": "QJ5R+HW 日本、東京都練馬区",
				"global_code": "8Q7XQJ5R+HW"
			}
		},
		"related_page": "http://www.tagara2-e.nerima-tky.ed.jp/"
	}, {
		"name": "向山小学校",
		"address": "向山2丁目14番11号",
		"call_number": "03-3999-9145",
		"capacity": null,
		"geo": {
			"coordinate": {
				"lng": 139.6412326,
				"lat": 35.7406192
			},
			"formatted_address": "日本、〒176-0022 東京都練馬区向山２丁目１４−１１",
			"place_id": "ChIJ12trEq7tGGARUPzkJht9N2M",
			"plus_code": {
				"compound_code": "PJRR+6F 日本、東京都練馬区",
				"global_code": "8Q7XPJRR+6F"
			}
		},
		"related_page": "http://www.kouyama-e.nerima-tky.ed.jp/"
	}, {
		"name": "豊溪小学校",
		"address": "土支田2丁目26番28号",
		"call_number": "03-3925-2444",
		"capacity": null,
		"geo": {
			"coordinate": {
				"lng": 139.6155629,
				"lat": 35.7632697
			},
			"formatted_address": "日本、〒179-0076 東京都練馬区土支田２丁目２６−２８",
			"place_id": "ChIJ07U4sgTsGGAR_8CMBg6nzng",
			"plus_code": {
				"compound_code": "QJ78+86 日本、東京都練馬区",
				"global_code": "8Q7XQJ78+86"
			}
		},
		"related_page": "http://www.houkei-e.nerima-tky.ed.jp/"
	}, {
		"name": "旭町小学校",
		"address": "旭町2丁目29番1号",
		"call_number": "03-3939-0362",
		"capacity": null,
		"geo": {
			"coordinate": {
				"lng": 139.6276043,
				"lat": 35.7732705
			},
			"formatted_address": "日本、〒179-0071 東京都練馬区旭町２丁目２９−１",
			"place_id": "ChIJ3VOeeQvsGGARaywI4yLzUKE",
			"plus_code": {
				"compound_code": "QJFH+82 日本、東京都練馬区",
				"global_code": "8Q7XQJFH+82"
			}
		},
		"related_page": "http://www.asahichou-e.nerima-tky.ed.jp/"
	}, {
		"name": "高松小学校",
		"address": "高松3丁目16番1号",
		"call_number": "03-3999-3376",
		"capacity": null,
		"geo": {
			"coordinate": {
				"lng": 134.0634141,
				"lat": 34.3364383
			},
			"formatted_address": "日本、〒760-0063 香川県高松市多賀町３丁目１６",
			"place_id": "ChIJ8XPax3DrUzURka0b9z-64d0",
			"plus_code": {}
		},
		"related_page": "http://www.takamatsu-e.nerima-tky.ed.jp/"
	}, {
		"name": "春日小学校",
		"address": "春日町5丁目12番1号",
		"call_number": "03-3926-7102",
		"capacity": null,
		"geo": {
			"coordinate": {
				"lng": 139.6399135,
				"lat": 35.7466679
			},
			"formatted_address": "日本、〒179-0074 東京都練馬区春日町５丁目１２−１",
			"place_id": "ChIJIcNOYU3sGGAR3WxxeOJb2uo",
			"plus_code": {
				"compound_code": "PJWQ+MX 日本、東京都練馬区",
				"global_code": "8Q7XPJWQ+MX"
			}
		},
		"related_page": "http://www.kasuga-e.nerima-tky.ed.jp/"
	}, {
		"name": "光が丘四季の香小学校",
		"address": "高松5丁目24番1号",
		"call_number": "03-3977-2711",
		"capacity": null,
		"geo": {
			"coordinate": {
				"lng": 139.6246249,
				"lat": 35.761621
			},
			"formatted_address": "日本、〒179-0075 東京都練馬区高松５丁目２４−１",
			"place_id": "ChIJw1JFrxbsGGARg1OD6hVVmng",
			"plus_code": {
				"compound_code": "QJ6F+JR 日本、東京都練馬区",
				"global_code": "8Q7XQJ6F+JR"
			}
		},
		"related_page": "http://www.shikinokaori-e.nerima-tky.ed.jp/"
	}, {
		"name": "光が丘春の風小学校",
		"address": "光が丘7丁目2番1号",
		"call_number": "03-3976-5861",
		"capacity": null,
		"geo": {
			"coordinate": {
				"lng": 139.6262459,
				"lat": 35.7553909
			},
			"formatted_address": "日本、〒179-0072 東京都練馬区光が丘７丁目２−１",
			"place_id": "ChIJd3gYiz7sGGARz6Xh4oHt8Ww",
			"plus_code": {
				"compound_code": "QJ4G+5F 日本、東京都練馬区",
				"global_code": "8Q7XQJ4G+5F"
			}
		},
		"related_page": "http://www.harunokaze-e.nerima-tky.ed.jp/"
	}, {
		"name": "光が丘夏の雲小学校",
		"address": "光が丘3丁目6番1号",
		"call_number": "03-5998-0501",
		"capacity": null,
		"geo": {
			"coordinate": {
				"lng": 139.6313489,
				"lat": 35.7573734
			},
			"formatted_address": "日本、〒179-0072 東京都練馬区光が丘３丁目６−１",
			"place_id": "ChIJ0dkM7kDsGGAR-QgI92YFaPk",
			"plus_code": {
				"compound_code": "QJ4J+WG 日本、東京都練馬区",
				"global_code": "8Q7XQJ4J+WG"
			}
		},
		"related_page": "http://www.natsunokumo-e.nerima-tky.ed.jp/"
	}, {
		"name": "光が丘秋の陽小学校",
		"address": "光が丘2丁目1番1号",
		"call_number": "03-3976-6331",
		"capacity": null,
		"geo": {
			"coordinate": {
				"lng": 139.6348134,
				"lat": 35.7618011
			},
			"formatted_address": "日本、〒179-0072 東京都練馬区光が丘２丁目１−１",
			"place_id": "ChIJVwrLB2rsGGARw-FiDAuCxWo",
			"plus_code": {
				"compound_code": "QJ6M+PW 日本、東京都練馬区",
				"global_code": "8Q7XQJ6M+PW"
			}
		},
		"related_page": "http://www.akinohi-e.nerima-tky.ed.jp/"
	}, {
		"name": "光が丘第八小学校",
		"address": "光が丘1丁目4番1号",
		"call_number": "03-5997-4828",
		"capacity": null,
		"geo": {
			"coordinate": {
				"lng": 139.6375069,
				"lat": 35.7682324
			},
			"formatted_address": "日本、〒179-0072 東京都練馬区光が丘１丁目４−１",
			"place_id": "ChIJ00OZ4G7sGGARcWVAP_gXvM0",
			"plus_code": {
				"compound_code": "QJ9Q+72 日本、東京都練馬区",
				"global_code": "8Q7XQJ9Q+72"
			}
		},
		"related_page": "http://www.hikarigaoka8-e.nerima-tky.ed.jp/"
	}, {
		"name": "石神井小学校",
		"address": "石神井台1丁目1番25号",
		"call_number": "03-3997-3277",
		"capacity": null,
		"geo": {
			"coordinate": {
				"lng": 139.5991177,
				"lat": 35.7356358
			},
			"formatted_address": "日本、〒177-0045 東京都練馬区石神井台１丁目１−２５",
			"place_id": "ChIJ-ws4j4XuGGAR4rTxdtvDkAk",
			"plus_code": {
				"compound_code": "PHPX+7J 日本、東京都練馬区",
				"global_code": "8Q7XPHPX+7J"
			}
		},
		"related_page": "http://www.shakujii-e.nerima-tky.ed.jp/"
	}, {
		"name": "石神井東小学校",
		"address": "南田中3丁目9番1号",
		"call_number": "03-3997-3312",
		"capacity": null,
		"geo": {
			"coordinate": {
				"lng": 139.619969,
				"lat": 35.7376138
			},
			"formatted_address": "日本、〒177-0035 東京都練馬区南田中３丁目９−１",
			"place_id": "ChIJRRsIqjLsGGAR0hpjLqwyW80",
			"plus_code": {
				"compound_code": "PJQ9+2X 日本、東京都練馬区",
				"global_code": "8Q7XPJQ9+2X"
			}
		},
		"related_page": "http://www.shakujii-e-e.nerima-tky.ed.jp/"
	}, {
		"name": "石神井西小学校",
		"address": "関町北1丁目1番5号",
		"call_number": "03-3920-0382",
		"capacity": null,
		"geo": {
			"coordinate": {
				"lng": 139.5803759,
				"lat": 35.7239505
			},
			"formatted_address": "日本、〒177-0051 東京都練馬区関町北１丁目１−５",
			"place_id": "ChIJ_UG9CPfuGGARRjKn6Dnj70w",
			"plus_code": {
				"compound_code": "PHFJ+H5 日本、東京都練馬区",
				"global_code": "8Q7XPHFJ+H5"
			}
		},
		"related_page": "http://www.shakujii-w-e.nerima-tky.ed.jp/"
	}, {
		"name": "石神井台小学校",
		"address": "石神井台8丁目6番33号",
		"call_number": "03-3928-7124",
		"capacity": null,
		"geo": {
			"coordinate": {
				"lng": 139.580913,
				"lat": 35.7350758
			},
			"formatted_address": "日本、〒177-0045 東京都練馬区石神井台８丁目６−３３",
			"place_id": "ChIJj06cK-_uGGAR138O3MIPmrA",
			"plus_code": {
				"compound_code": "PHPJ+29 日本、東京都練馬区",
				"global_code": "8Q7XPHPJ+29"
			}
		},
		"related_page": "http://www.shakujiidai-e.nerima-tky.ed.jp/"
	}, {
		"name": "上石神井小学校",
		"address": "上石神井4丁目10番9号",
		"call_number": "03-3920-0805",
		"capacity": null,
		"geo": {
			"coordinate": {
				"lng": 139.5893291,
				"lat": 35.727867
			},
			"formatted_address": "日本、〒177-0044 東京都練馬区上石神井４丁目１０−９",
			"place_id": "ChIJIzY3LovuGGARmLZF7IWSSnw",
			"plus_code": {
				"compound_code": "PHHQ+4P 日本、東京都練馬区",
				"global_code": "8Q7XPHHQ+4P"
			}
		},
		"related_page": "http://www.kamishakujii-e.nerima-tky.ed.jp/"
	}, {
		"name": "上石神井北小学校",
		"address": "石神井台5丁目1番32号",
		"call_number": "03-3920-1011",
		"capacity": null,
		"geo": {
			"coordinate": {
				"lng": 139.588666,
				"lat": 35.7357816
			},
			"formatted_address": "日本、〒177-0045 東京都練馬区石神井台５丁目１−３２",
			"place_id": "ChIJpcNZJu3uGGAR_5UXUvcFO6o",
			"plus_code": {
				"compound_code": "PHPQ+8F 日本、東京都練馬区",
				"global_code": "8Q7XPHPQ+8F"
			}
		},
		"related_page": "http://www.kamishakujii-n-e.nerima-tky.ed.jp/"
	}, {
		"name": "下石神井小学校",
		"address": "下石神井2丁目20番18号",
		"call_number": "03-3997-5241",
		"capacity": null,
		"geo": {
			"coordinate": {
				"lng": 139.605248,
				"lat": 35.7315238
			},
			"formatted_address": "日本、〒177-0042 東京都練馬区下石神井２丁目２０−１８",
			"place_id": "ChIJoXTCo4DuGGAR0Qx2h7y5N84",
			"plus_code": {
				"compound_code": "PJJ4+J3 日本、東京都練馬区",
				"global_code": "8Q7XPJJ4+J3"
			}
		},
		"related_page": "http://www.shimoshakujii-e.nerima-tky.ed.jp/"
	}, {
		"name": "光和小学校",
		"address": "石神井町2丁目16番34号",
		"call_number": "03-3997-3261",
		"capacity": null,
		"geo": {
			"coordinate": {
				"lng": 139.6072802,
				"lat": 35.746383
			},
			"formatted_address": "日本、〒177-0041 東京都練馬区石神井町２丁目１６−３４",
			"place_id": "ChIJHc97fJ7uGGAR02BU1HQhh0k",
			"plus_code": {
				"compound_code": "PJW4+HW 日本、東京都練馬区",
				"global_code": "8Q7XPJW4+HW"
			}
		},
		"related_page": "http://www.kouwa-e.nerima-tky.ed.jp/"
	}, {
		"name": "谷原小学校",
		"address": "谷原2丁目9番26号",
		"call_number": "03-3997-3271",
		"capacity": null,
		"geo": {
			"coordinate": {
				"lng": 139.6141151,
				"lat": 35.7510976
			},
			"formatted_address": "日本、〒177-0032 東京都練馬区谷原２丁目９−２６",
			"place_id": "ChIJiwctnSHsGGARbGDB1N1qaxQ",
			"plus_code": {
				"compound_code": "QJ27+CJ 日本、東京都練馬区",
				"global_code": "8Q7XQJ27+CJ"
			}
		},
		"related_page": "http://www.yawara-e.nerima-tky.ed.jp/"
	}, {
		"name": "北原小学校",
		"address": "谷原4丁目9番1号",
		"call_number": "03-3904-5172",
		"capacity": null,
		"geo": {
			"coordinate": {
				"lng": 139.6136461,
				"lat": 35.7545572
			},
			"formatted_address": "日本、〒177-0032 東京都練馬区谷原４丁目９−１",
			"place_id": "ChIJNZ1PPR_sGGAR4gzXz_Uu7UY",
			"plus_code": {
				"compound_code": "QJ37+RF 日本、東京都練馬区",
				"global_code": "8Q7XQJ37+RF"
			}
		},
		"related_page": "http://www.kitahara-e.nerima-tky.ed.jp/"
	}, {
		"name": "立野小学校",
		"address": "立野町17番13号",
		"call_number": "03-3920-9101",
		"capacity": null,
		"geo": {
			"coordinate": {
				"lng": 139.5807123,
				"lat": 35.7184173
			},
			"formatted_address": "日本、〒177-0054 東京都練馬区立野町１７−１３",
			"place_id": "ChIJPe3OvFnuGGAR15JemitUZmk",
			"plus_code": {
				"compound_code": "PH9J+97 日本、東京都練馬区",
				"global_code": "8Q7XPH9J+97"
			}
		},
		"related_page": "http://www.tateno-e.nerima-tky.ed.jp/"
	}, {
		"name": "関町小学校",
		"address": "関町北3丁目23番34号",
		"call_number": "03-3929-1290",
		"capacity": null,
		"geo": {
			"coordinate": {
				"lng": 139.5721248,
				"lat": 35.7252802
			},
			"formatted_address": "日本、〒177-0051 東京都練馬区関町北３丁目２３−３４",
			"place_id": "ChIJVcxW8PzuGGARDJc2QjoKsoY",
			"plus_code": {}
		},
		"related_page": "http://www.sekimachi-e.nerima-tky.ed.jp/"
	}, {
		"name": "関町北小学校",
		"address": "関町北5丁目13番40号",
		"call_number": "03-3920-1027",
		"capacity": null,
		"geo": {
			"coordinate": {
				"lng": 139.5736978,
				"lat": 35.7325667
			},
			"formatted_address": "日本、〒177-0051 東京都練馬区関町北５丁目１３−４０",
			"place_id": "ChIJa2nvVOHuGGAReY_jP5cl5W4",
			"plus_code": {
				"compound_code": "PHMF+2F 日本、東京都練馬区",
				"global_code": "8Q7XPHMF+2F"
			}
		},
		"related_page": "http://www.sekimachi-n-e.nerima-tky.ed.jp/"
	}, {
		"name": "大泉小学校",
		"address": "東大泉4丁目25番1号",
		"call_number": "03-3924-0144",
		"capacity": null,
		"geo": {
			"coordinate": {
				"lng": 139.5841702,
				"lat": 35.7517696
			},
			"formatted_address": "日本、〒178-0063 東京都練馬区東大泉４丁目２５−１",
			"place_id": "ChIJv3OKzcjuGGARXHZSuoqQEHo",
			"plus_code": {
				"compound_code": "QH2M+PM 日本、東京都練馬区",
				"global_code": "8Q7XQH2M+PM"
			}
		},
		"related_page": "http://www.ooizumi-e.nerima-tky.ed.jp/"
	}, {
		"name": "大泉第一小学校",
		"address": "大泉町3丁目16番23号",
		"call_number": "03-3925-2455",
		"capacity": null,
		"geo": {
			"coordinate": {
				"lng": 139.5987985,
				"lat": 35.7656042
			},
			"formatted_address": "日本、〒178-0062 東京都練馬区大泉町３丁目１６−２３",
			"place_id": "ChIJQYbNVU3pGGARqKb0ATUk5Io",
			"plus_code": {
				"compound_code": "QH8X+6G 日本、東京都練馬区",
				"global_code": "8Q7XQH8X+6G"
			}
		},
		"related_page": "http://www.ooizumi1-e.nerima-tky.ed.jp/"
	}, {
		"name": "大泉第二小学校",
		"address": "南大泉4丁目29番11号",
		"call_number": "03-3924-2127",
		"capacity": null,
		"geo": {
			"coordinate": {
				"lng": 139.5732545,
				"lat": 35.7443015
			},
			"formatted_address": "日本、〒178-0064 東京都練馬区南大泉４丁目２９−１１",
			"place_id": "ChIJ7Zfpj9nuGGARd5ryVxrjxkQ",
			"plus_code": {
				"compound_code": "PHVF+P8 日本、東京都練馬区",
				"global_code": "8Q7XPHVF+P8"
			}
		},
		"related_page": "http://www.ooizumi2-e.nerima-tky.ed.jp/"
	}, {
		"name": "大泉第三小学校",
		"address": "大泉学園町3丁目22番1号",
		"call_number": "03-3925-2466",
		"capacity": null,
		"geo": {
			"coordinate": {
				"lng": 139.5796865,
				"lat": 35.7636306
			},
			"formatted_address": "日本、〒178-0061 東京都練馬区大泉学園町３丁目２２−１",
			"place_id": "ChIJleurwzHpGGAR6j0o1pHXcf0",
			"plus_code": {
				"compound_code": "QH7H+FV 日本、東京都練馬区",
				"global_code": "8Q7XQH7H+FV"
			}
		},
		"related_page": "http://www.ooizumi3-e.nerima-tky.ed.jp/"
	}, {
		"name": "大泉第四小学校",
		"address": "西大泉1丁目24番1号",
		"call_number": "03-3925-2477",
		"capacity": null,
		"geo": {
			"coordinate": {
				"lng": 139.5734379,
				"lat": 35.7558797
			},
			"formatted_address": "日本、〒178-0065 東京都練馬区西大泉１丁目２４−１",
			"place_id": "ChIJ_TQeWivpGGARGs4YSyhqb98",
			"plus_code": {
				"compound_code": "QH4F+99 日本、東京都練馬区",
				"global_code": "8Q7XQH4F+99"
			}
		},
		"related_page": "http://www.ooizumi4-e.nerima-tky.ed.jp/"
	}, {
		"name": "大泉第六小学校",
		"address": "南大泉5丁目25番29号",
		"call_number": "03-3925-2471",
		"capacity": null,
		"geo": {
			"coordinate": {
				"lng": 139.5715614,
				"lat": 35.7514035
			},
			"formatted_address": "日本、〒178-0064 東京都練馬区南大泉５丁目２５−２９",
			"place_id": "ChIJFdFKTNTuGGARAg1_WiYXOtU",
			"plus_code": {
				"compound_code": "QH2C+HJ 日本、東京都練馬区",
				"global_code": "8Q7XQH2C+HJ"
			}
		},
		"related_page": "http://www.ooizumi6-e.nerima-tky.ed.jp/"
	}, {
		"name": "大泉東小学校",
		"address": "東大泉1丁目22番1号",
		"call_number": "03-3922-1355",
		"capacity": null,
		"geo": {
			"coordinate": {
				"lng": 139.5910543,
				"lat": 35.7480781
			},
			"formatted_address": "日本、〒178-0063 東京都練馬区東大泉１丁目２２−１",
			"place_id": "ChIJLd4mML_uGGARKwi0fQHfk3o",
			"plus_code": {}
		},
		"related_page": "http://www.ooizumi-e-e.nerima-tky.ed.jp/"
	}, {
		"name": "大泉西小学校",
		"address": "西大泉4丁目25番1号",
		"call_number": "03-3925-5832",
		"capacity": null,
		"geo": {
			"coordinate": {
				"lng": 139.5720515,
				"lat": 35.7653435
			},
			"formatted_address": "日本、〒178-0065 東京都練馬区西大泉４丁目２５−１",
			"place_id": "ChIJCxatTybpGGARn3OXhVTfCes",
			"plus_code": {
				"compound_code": "QH8C+4R 日本、東京都練馬区",
				"global_code": "8Q7XQH8C+4R"
			}
		},
		"related_page": "http://www.ooizumi-w-e.nerima-tky.ed.jp/"
	}, {
		"name": "大泉南小学校",
		"address": "東大泉6丁目28番1号",
		"call_number": "03-3922-1371",
		"capacity": null,
		"geo": {
			"coordinate": {
				"lng": 139.5815389,
				"lat": 35.7448949
			},
			"formatted_address": "日本、〒178-0063 東京都練馬区東大泉６丁目２８−１",
			"place_id": "ChIJ99RthcTuGGARwS0RT9TXiMQ",
			"plus_code": {
				"compound_code": "PHVJ+XJ 日本、東京都練馬区",
				"global_code": "8Q7XPHVJ+XJ"
			}
		},
		"related_page": "http://www.ooizumi-s-e.nerima-tky.ed.jp/"
	}, {
		"name": "大泉北小学校",
		"address": "大泉町4丁目28番22号",
		"call_number": "03-3925-5912",
		"capacity": null,
		"geo": {
			"coordinate": {
				"lng": 139.5960969,
				"lat": 35.7624093
			},
			"formatted_address": "日本、〒178-0062 東京都練馬区大泉町４丁目２８−２２",
			"place_id": "ChIJSZEPCbPuGGARofYC87M6cAE",
			"plus_code": {
				"compound_code": "QH6W+XC 日本、東京都練馬区",
				"global_code": "8Q7XQH6W+XC"
			}
		},
		"related_page": "http://www.ooizumi-n-e.nerima-tky.ed.jp/"
	}, {
		"name": "大泉学園小学校",
		"address": "大泉学園町4丁目7番1号",
		"call_number": "03-3923-0006",
		"capacity": null,
		"geo": {
			"coordinate": {
				"lng": 139.5933063,
				"lat": 35.7657132
			},
			"formatted_address": "日本、〒178-0061 東京都練馬区大泉学園町４丁目７−１",
			"place_id": "ChIJk0olnEvpGGARn5LwsouZQUI",
			"plus_code": {
				"compound_code": "QH8V+78 日本、東京都練馬区",
				"global_code": "8Q7XQH8V+78"
			}
		},
		"related_page": "http://www.gakuen-e.nerima-tky.ed.jp/"
	}, {
		"name": "大泉学園緑小学校",
		"address": "大泉学園町5丁目11番47号",
		"call_number": "03-3925-7233",
		"capacity": null,
		"geo": {
			"coordinate": {
				"lng": 139.5856336,
				"lat": 35.7663501
			},
			"formatted_address": "日本、〒178-0061 東京都練馬区大泉学園町５丁目１１−４７",
			"place_id": "ChIJSYIz5jbpGGARJNMmqP7iROc",
			"plus_code": {
				"compound_code": "QH8P+G7 日本、東京都練馬区",
				"global_code": "8Q7XQH8P+G7"
			}
		},
		"related_page": "http://www.gakuen-midori-e.nerima-tky.ed.jp/"
	}, {
		"name": "大泉桜学園",
		"address": "大泉学園町9丁目2番1号",
		"call_number": "03-3924-1126",
		"capacity": null,
		"geo": {
			"coordinate": {
				"lng": 139.5908392,
				"lat": 35.7774731
			},
			"formatted_address": "日本、〒178-0061 東京都練馬区大泉学園町９丁目２−１",
			"place_id": "ChIJcftJ70DpGGAROCkW64ZlCFY",
			"plus_code": {
				"compound_code": "QHGR+X8 日本、東京都練馬区",
				"global_code": "8Q7XQHGR+X8"
			}
		},
		"related_page": "http://www.sakuragakuen.nerima-tky.ed.jp/"
	}, {
		"name": "泉新小学校",
		"address": "三原台3丁目18番30号",
		"call_number": "03-3925-4343",
		"capacity": null,
		"geo": {
			"coordinate": {
				"lng": 139.6015527,
				"lat": 35.7542887
			},
			"formatted_address": "日本、〒177-0031 東京都練馬区三原台３丁目１８−３０",
			"place_id": "ChIJL0Nl8KTuGGARG3txvEFRHeg",
			"plus_code": {
				"compound_code": "QJ32+PJ 日本、東京都練馬区",
				"global_code": "8Q7XQJ32+PJ"
			}
		},
		"related_page": "http://www.senshin-e.nerima-tky.ed.jp/"
	}, {
		"name": "橋戸小学校",
		"address": "大泉町2丁目11番25号",
		"call_number": "03-3925-8620",
		"capacity": null,
		"geo": {
			"coordinate": {
				"lng": 139.6026547,
				"lat": 35.758969
			},
			"formatted_address": "日本、〒178-0062 東京都練馬区大泉町２丁目１１−２５",
			"place_id": "ChIJ76SQEq_uGGARS_bm-rN-DCo",
			"plus_code": {
				"compound_code": "QJ53+H3 日本、東京都練馬区",
				"global_code": "8Q7XQJ53+H3"
			}
		},
		"related_page": "http://www.hashido-e.nerima-tky.ed.jp/"
	}, {
		"name": "南田中小学校",
		"address": "南田中5丁目15番37号",
		"call_number": "03-3997-1145",
		"capacity": null,
		"geo": {
			"coordinate": {
				"lng": 139.6111964,
				"lat": 35.7370306
			},
			"formatted_address": "日本、〒177-0035 東京都練馬区南田中５丁目１５−３７",
			"place_id": "ChIJwaXXQCrsGGARrXyFkGxzZrQ",
			"plus_code": {
				"compound_code": "PJP6+RF 日本、東京都練馬区",
				"global_code": "8Q7XPJP6+RF"
			}
		},
		"related_page": "http://www.minamitanaka-e.nerima-tky.ed.jp/"
	}, {
		"name": "南が丘小学校",
		"address": "南田中2丁目13番1号",
		"call_number": "03-3904-1282",
		"capacity": null,
		"geo": {
			"coordinate": {
				"lng": 139.6171559,
				"lat": 35.7337929
			},
			"formatted_address": "日本、〒177-0035 東京都練馬区南田中２丁目１３−１",
			"place_id": "ChIJCUT5VNLtGGARp8cZ2bQFVwc",
			"plus_code": {
				"compound_code": "PJM8+GV 日本、東京都練馬区",
				"global_code": "8Q7XPJM8+GV"
			}
		},
		"related_page": "http://www.minamigaoka-e.nerima-tky.ed.jp/"
	}, {
		"name": "富士見台小学校",
		"address": "富士見台4丁目16番10号",
		"call_number": "03-3998-6351",
		"capacity": null,
		"geo": {
			"coordinate": {
				"lng": 139.6232737,
				"lat": 35.7449174
			},
			"formatted_address": "日本、〒177-0034 東京都練馬区富士見台４丁目１６−１０",
			"place_id": "ChIJ_w5dFzHsGGARuNdZ_5RNB0c",
			"plus_code": {
				"compound_code": "PJVF+X8 日本、東京都練馬区",
				"global_code": "8Q7XPJVF+X8"
			}
		},
		"related_page": "http://www.fujimidai-e.nerima-tky.ed.jp/"
	}, {
		"name": "八坂小学校",
		"address": "土支田4丁目48番1号",
		"call_number": "03-3922-7625",
		"capacity": null,
		"geo": {
			"coordinate": {
				"lng": 139.6113121,
				"lat": 35.7687005
			},
			"formatted_address": "日本、〒179-0076 東京都練馬区土支田４丁目４８−１",
			"place_id": "ChIJHyonRQDsGGAR6V2_3qh0O3Q",
			"plus_code": {
				"compound_code": "QJ96+FG 日本、東京都練馬区",
				"global_code": "8Q7XQJ96+FG"
			}
		},
		"related_page": "http://www.yasaka-e.nerima-tky.ed.jp/"
	}, {
		"name": "旭丘中学校",
		"address": "旭丘2丁目40番1号",
		"call_number": "03-3957-3133",
		"capacity": null,
		"geo": {
			"coordinate": {
				"lng": 139.6774634,
				"lat": 35.7379714
			},
			"formatted_address": "日本、〒176-0005 東京都練馬区旭丘２丁目４０−１",
			"place_id": "ChIJ2af7nEbtGGARqS36uMEVG-o",
			"plus_code": {
				"compound_code": "PMQG+5X 日本、東京都練馬区",
				"global_code": "8Q7XPMQG+5X"
			}
		},
		"related_page": "http://www.asahigaoka-j.nerima-tky.ed.jp/"
	}, {
		"name": "豊玉中学校",
		"address": "豊玉南2丁目1番20号",
		"call_number": "03-3994-1451",
		"capacity": null,
		"geo": {
			"coordinate": {
				"lng": 139.658545,
				"lat": 35.7291449
			},
			"formatted_address": "日本、〒176-0014 東京都練馬区豊玉南２丁目１−２０",
			"place_id": "ChIJabNjeHHtGGARLqjWm0erH5c",
			"plus_code": {
				"compound_code": "PMH5+MC 日本、東京都練馬区",
				"global_code": "8Q7XPMH5+MC"
			}
		},
		"related_page": "http://www.toyotama-j.nerima-tky.ed.jp/"
	}, {
		"name": "豊玉第二中学校",
		"address": "豊玉北2丁目24番5号",
		"call_number": "03-3993-4212",
		"capacity": null,
		"geo": {
			"coordinate": {
				"lng": 139.6644014,
				"lat": 35.7349008
			},
			"formatted_address": "日本、〒176-0012 東京都練馬区豊玉北２丁目２４−５",
			"place_id": "ChIJdTxei2ztGGARq3GoVKF2gG0",
			"plus_code": {}
		},
		"related_page": "http://www.toyotama2-j.nerima-tky.ed.jp/"
	}, {
		"name": "中村中学校",
		"address": "中村南1丁目32番21号",
		"call_number": "03-3990-4436",
		"capacity": null,
		"geo": {
			"coordinate": {
				"lng": 139.6453188,
				"lat": 35.7283014
			},
			"formatted_address": "日本、〒176-0025 東京都練馬区中村南１丁目３２−２１",
			"place_id": "ChIJe9CoS5_tGGAR3xXxCNsq-ec",
			"plus_code": {
				"compound_code": "PJHW+84 日本、東京都練馬区",
				"global_code": "8Q7XPJHW+84"
			}
		},
		"related_page": "http://www.nakamura-j.nerima-tky.ed.jp/"
	}, {
		"name": "開進第一中学校",
		"address": "早宮1丁目16番50号",
		"call_number": "03-3993-2417",
		"capacity": null,
		"geo": {
			"coordinate": {
				"lng": 139.659563,
				"lat": 35.752681
			},
			"formatted_address": "日本、〒179-0085 東京都練馬区早宮１丁目１６−５０",
			"place_id": "ChIJa1zrmQLtGGARd2eohJ3ottA",
			"plus_code": {
				"compound_code": "QM35+3R 日本、東京都練馬区",
				"global_code": "8Q7XQM35+3R"
			}
		},
		"related_page": "http://www.kaishin1-j.nerima-tky.ed.jp/"
	}, {
		"name": "開進第二中学校",
		"address": "練馬2丁目27番28号",
		"call_number": "03-3993-1348",
		"capacity": null,
		"geo": {
			"coordinate": {
				"lng": 139.6525779,
				"lat": 35.7433165
			},
			"formatted_address": "日本、〒176-0001 東京都練馬区練馬２丁目２７−２８",
			"place_id": "ChIJRZHhswftGGAR_zHwYt9h-B4",
			"plus_code": {
				"compound_code": "PMV3+82 日本、東京都練馬区",
				"global_code": "8Q7XPMV3+82"
			}
		},
		"related_page": "http://www.kaishin2-j.nerima-tky.ed.jp/"
	}, {
		"name": "開進第三中学校",
		"address": "桜台3丁目28番1号",
		"call_number": "03-3993-4265",
		"capacity": null,
		"geo": {
			"coordinate": {
				"lng": 139.6652051,
				"lat": 35.7457968
			},
			"formatted_address": "日本、〒176-0002 東京都練馬区桜台３丁目２８−１",
			"place_id": "ChIJsUl9shDtGGARiTpYARvrBcg",
			"plus_code": {
				"compound_code": "PMW8+83 日本、東京都練馬区",
				"global_code": "8Q7XPMW8+83"
			}
		},
		"related_page": "http://www.kaishin3-j.nerima-tky.ed.jp/"
	}, {
		"name": "開進第四中学校",
		"address": "羽沢3丁目24番1号",
		"call_number": "03-3993-1481",
		"capacity": null,
		"geo": {
			"coordinate": {
				"lng": 139.5409671,
				"lat": 35.8529506
			},
			"formatted_address": "日本、〒354-0033 埼玉県富士見市羽沢３丁目２４",
			"place_id": "ChIJD3QLcyfDGGARQvK6GENYhmM",
			"plus_code": {}
		},
		"related_page": "http://www.kaishin4-j.nerima-tky.ed.jp/"
	}, {
		"name": "北町中学校",
		"address": "北町3丁目1番34号",
		"call_number": "03-3932-7231",
		"capacity": null,
		"geo": {
			"coordinate": {
				"lng": 139.6571803,
				"lat": 35.7671872
			},
			"formatted_address": "日本、〒179-0081 東京都練馬区北町３丁目１−３４",
			"place_id": "ChIJWzK_uPPsGGARzaTjsTve3TA",
			"plus_code": {
				"compound_code": "QM84+VV 日本、東京都練馬区",
				"global_code": "8Q7XQM84+VV"
			}
		},
		"related_page": "http://www.kitamachi-j.nerima-tky.ed.jp/"
	}, {
		"name": "練馬中学校",
		"address": "高松1丁目24番1号",
		"call_number": "03-3990-5451",
		"capacity": null,
		"geo": {
			"coordinate": {
				"lng": 139.4208689,
				"lat": 35.710285
			},
			"formatted_address": "日本、〒190-0011 東京都立川市高松町１丁目２４",
			"place_id": "ChIJbUaTk2zhGGAR7Q5mm19rhdg",
			"plus_code": {}
		},
		"related_page": "http://www.nerima-j.nerima-tky.ed.jp/"
	}, {
		"name": "練馬東中学校",
		"address": "春日町2丁目14番22号",
		"call_number": "03-3998-0231",
		"capacity": null,
		"geo": {
			"coordinate": {
				"lng": 139.6476242,
				"lat": 35.7570051
			},
			"formatted_address": "日本、〒179-0074 東京都練馬区春日町２丁目１４−２２",
			"place_id": "ChIJP3F4d1fsGGARyijTS84su_8",
			"plus_code": {
				"compound_code": "QJ4X+R2 日本、東京都練馬区",
				"global_code": "8Q7XQJ4X+R2"
			}
		},
		"related_page": "http://www.nerima-e-j.nerima-tky.ed.jp/"
	}, {
		"name": "貫井中学校",
		"address": "貫井2丁目14番13号",
		"call_number": "03-3990-6412",
		"capacity": null,
		"geo": {
			"coordinate": {
				"lng": 139.6332084,
				"lat": 35.7396278
			},
			"formatted_address": "日本、〒176-0021 東京都練馬区貫井２丁目１４−１３",
			"place_id": "ChIJw5htULTtGGARUhdZBo_x0mQ",
			"plus_code": {
				"compound_code": "PJQM+V7 日本、東京都練馬区",
				"global_code": "8Q7XPJQM+V7"
			}
		},
		"related_page": "http://www.nukui-j.nerima-tky.ed.jp/"
	}, {
		"name": "田柄中学校",
		"address": "田柄3丁目3番1号",
		"call_number": "03-3990-4403",
		"capacity": null,
		"geo": {
			"coordinate": {
				"lng": 139.6416352,
				"lat": 35.7596667
			},
			"formatted_address": "日本、〒179-0073 東京都練馬区田柄３丁目３−１",
			"place_id": "ChIJByDrYVvsGGARte5E2izD1LQ",
			"plus_code": {
				"compound_code": "QJ5R+VM 日本、東京都練馬区",
				"global_code": "8Q7XQJ5R+VM"
			}
		},
		"related_page": "http://www.tagara-j.nerima-tky.ed.jp/"
	}, {
		"name": "豊渓中学校",
		"address": "旭町3丁目5番10号",
		"call_number": "03-3939-0245",
		"capacity": null,
		"geo": {
			"coordinate": {
				"lng": 141.3662407,
				"lat": 43.0470318
			},
			"formatted_address": "日本、〒062-0911 北海道札幌市豊平区旭町３丁目５",
			"place_id": "ChIJ5-WB4y4qC18Rrxni_yo5eCc",
			"plus_code": {}
		},
		"related_page": "http://www.houkei-j.nerima-tky.ed.jp/"
	}, {
		"name": "光が丘第一中学校",
		"address": "光が丘6丁目5番1号",
		"call_number": "03-3976-5871",
		"capacity": null,
		"geo": {
			"coordinate": {
				"lng": 139.6225228,
				"lat": 35.7600272
			},
			"formatted_address": "日本、〒179-0072 東京都練馬区光が丘６丁目５−１",
			"place_id": "ChIJZ7wR4RbsGGARCPdXk6MEhLk",
			"plus_code": {
				"compound_code": "QJ6F+22 日本、東京都練馬区",
				"global_code": "8Q7XQJ6F+22"
			}
		},
		"related_page": "http://www.hikarigaoka1-j.nerima-tky.ed.jp/"
	}, {
		"name": "光が丘第二中学校",
		"address": "光が丘7丁目1番1号",
		"call_number": "03-3976-9202",
		"capacity": null,
		"geo": {
			"coordinate": {
				"lng": 139.6261748,
				"lat": 35.7546802
			},
			"formatted_address": "日本、〒179-0072 東京都練馬区光が丘７丁目１−１",
			"place_id": "ChIJp5x7wD7sGGAR3RkwxkzsSls",
			"plus_code": {
				"compound_code": "QJ3G+VF 日本、東京都練馬区",
				"global_code": "8Q7XQJ3G+VF"
			}
		},
		"related_page": "http://www.hikarigaoka2-j.nerima-tky.ed.jp/"
	}, {
		"name": "光が丘第三中学校",
		"address": "光が丘3丁目2番1号",
		"call_number": "03-3977-3521",
		"capacity": null,
		"geo": {
			"coordinate": {
				"lng": 139.6316165,
				"lat": 35.7551127
			},
			"formatted_address": "日本、〒179-0072 東京都練馬区光が丘３丁目２−１",
			"place_id": "ChIJIa1UOEfsGGARdConLKe_kg8",
			"plus_code": {
				"compound_code": "QJ4J+2J 日本、東京都練馬区",
				"global_code": "8Q7XQJ4J+2J"
			}
		},
		"related_page": "http://www.hikarigaoka3-j.nerima-tky.ed.jp/"
	}, {
		"name": "石神井中学校",
		"address": "石神井台1丁目32番1号",
		"call_number": "03-3997-3131",
		"capacity": null,
		"geo": {
			"coordinate": {
				"lng": 139.5957324,
				"lat": 35.7411931
			},
			"formatted_address": "日本、〒177-0045 東京都練馬区石神井台１丁目３２−１",
			"place_id": "ChIJz5mENJHuGGARQteKG3VlaAU",
			"plus_code": {
				"compound_code": "PHRW+F7 日本、東京都練馬区",
				"global_code": "8Q7XPHRW+F7"
			}
		},
		"related_page": "http://www.shakujii-j.nerima-tky.ed.jp/"
	}, {
		"name": "石神井東中学校",
		"address": "高野台1丁目8番34号",
		"call_number": "03-3996-2157",
		"capacity": null,
		"geo": {
			"coordinate": {
				"lng": 139.6168874,
				"lat": 35.7424507
			},
			"formatted_address": "日本、〒177-0033 東京都練馬区高野台１丁目８−３４",
			"place_id": "ChIJMdLJ-y7sGGARTp_MWLzrR04",
			"plus_code": {
				"compound_code": "PJR8+XQ 日本、東京都練馬区",
				"global_code": "8Q7XPJR8+XQ"
			}
		},
		"related_page": "http://www.shakujii-e-j.nerima-tky.ed.jp/"
	}, {
		"name": "石神井西中学校",
		"address": "関町南3丁目10番3号",
		"call_number": "03-3920-1034",
		"capacity": null,
		"geo": {
			"coordinate": {
				"lng": 139.5802139,
				"lat": 35.7202863
			},
			"formatted_address": "日本、〒177-0053 東京都練馬区関町南３丁目１０−３",
			"place_id": "ChIJ-QLZbljuGGARXu-2HdhWFbY",
			"plus_code": {
				"compound_code": "PHCJ+43 日本、東京都練馬区",
				"global_code": "8Q7XPHCJ+43"
			}
		},
		"related_page": "http://www.shakujii-w-j.nerima-tky.ed.jp/"
	}, {
		"name": "石神井南中学校",
		"address": "下石神井2丁目7番23号",
		"call_number": "03-3997-3315",
		"capacity": null,
		"geo": {
			"coordinate": {
				"lng": 139.6089618,
				"lat": 35.730754
			},
			"formatted_address": "日本、〒177-0042 東京都練馬区下石神井２丁目７−２３",
			"place_id": "ChIJH1EoeX_uGGARoINW9hg7qMk",
			"plus_code": {
				"compound_code": "PJJ5+8H 日本、東京都練馬区",
				"global_code": "8Q7XPJJ5+8H"
			}
		},
		"related_page": "http://www.shakujii-s-j.nerima-tky.ed.jp/"
	}, {
		"name": "上石神井中学校",
		"address": "上石神井4丁目15番27号",
		"call_number": "03-3920-1126",
		"capacity": null,
		"geo": {
			"coordinate": {
				"lng": 139.5886053,
				"lat": 35.7283594
			},
			"formatted_address": "日本、〒177-0044 東京都練馬区上石神井４丁目１５−２７",
			"place_id": "ChIJ8ddkovTuGGARIz6wKnUGSi8",
			"plus_code": {
				"compound_code": "PHHQ+8C 日本、東京都練馬区",
				"global_code": "8Q7XPHHQ+8C"
			}
		},
		"related_page": "http://www.kamishakujii-j.nerima-tky.ed.jp/"
	}, {
		"name": "南が丘中学校",
		"address": "南田中4丁目8番23号",
		"call_number": "03-3904-5782",
		"capacity": null,
		"geo": {
			"coordinate": {
				"lng": 139.6131188,
				"lat": 35.734021
			},
			"formatted_address": "日本、〒177-0035 東京都練馬区南田中４丁目８−２３",
			"place_id": "ChIJ5S2LxdTtGGAReNKJxc65i9w",
			"plus_code": {
				"compound_code": "PJM7+J6 日本、東京都練馬区",
				"global_code": "8Q7XPJM7+J6"
			}
		},
		"related_page": "http://www.minamigaoka-j.nerima-tky.ed.jp/"
	}, {
		"name": "谷原中学校",
		"address": "谷原4丁目10番5号",
		"call_number": "03-3995-8036",
		"capacity": null,
		"geo": {
			"coordinate": {
				"lng": 139.6151012,
				"lat": 35.75493180000001
			},
			"formatted_address": "日本、〒177-0032 東京都練馬区谷原４丁目１０−５",
			"place_id": "ChIJ4S6XyRjsGGARNfMkQ_KYXHA",
			"plus_code": {
				"compound_code": "QJ38+X2 日本、東京都練馬区",
				"global_code": "8Q7XQJ38+X2"
			}
		},
		"related_page": "http://www.yawara-j.nerima-tky.ed.jp/"
	}, {
		"name": "三原台中学校",
		"address": "三原台3丁目13番41号",
		"call_number": "03-3925-9564",
		"capacity": null,
		"geo": {
			"coordinate": {
				"lng": 139.6007105,
				"lat": 35.75449820000001
			},
			"formatted_address": "日本、〒177-0031 東京都練馬区三原台３丁目１３−４１",
			"place_id": "ChIJFZiUIKXuGGARMKOC60ltFAc",
			"plus_code": {}
		},
		"related_page": "http://www.miharadai-j.nerima-tky.ed.jp/"
	}, {
		"name": "大泉中学校",
		"address": "東大泉4丁目27番35号",
		"call_number": "03-3924-0771",
		"capacity": null,
		"geo": {
			"coordinate": {
				"lng": 139.5852401,
				"lat": 35.7525239
			},
			"formatted_address": "日本、〒178-0063 東京都練馬区東大泉４丁目２７−３５",
			"place_id": "ChIJB0G_58juGGARvOVWF5aK16g",
			"plus_code": {
				"compound_code": "QH3P+23 日本、東京都練馬区",
				"global_code": "8Q7XQH3P+23"
			}
		},
		"related_page": "http://www.ooizumi-j.nerima-tky.ed.jp/"
	}, {
		"name": "大泉第二中学校",
		"address": "東大泉6丁目21番1号",
		"call_number": "03-3922-0165",
		"capacity": null,
		"geo": {
			"coordinate": {
				"lng": 139.5849429,
				"lat": 35.7449847
			},
			"formatted_address": "日本、〒178-0063 東京都練馬区東大泉６丁目２１−１",
			"place_id": "ChIJj_2MaMHuGGARNsSwf1wqXTs",
			"plus_code": {}
		},
		"related_page": "http://www.ooizumi2-j.nerima-tky.ed.jp/"
	}, {
		"name": "大泉西中学校",
		"address": "西大泉3丁目19番27号",
		"call_number": "03-3921-7101",
		"capacity": null,
		"geo": {
			"coordinate": {
				"lng": 139.5799894,
				"lat": 35.7584475
			},
			"formatted_address": "日本、〒178-0065 東京都練馬区西大泉３丁目１９−２７",
			"place_id": "ChIJc7H3uTLpGGARFO59EmRfcro",
			"plus_code": {
				"compound_code": "QH5H+9X 日本、東京都練馬区",
				"global_code": "8Q7XQH5H+9X"
			}
		},
		"related_page": "http://www.ooizumi-w-j.nerima-tky.ed.jp/"
	}, {
		"name": "大泉北中学校",
		"address": "大泉町5丁目4番32号",
		"call_number": "03-3925-9230",
		"capacity": null,
		"geo": {
			"coordinate": {
				"lng": 139.5963249,
				"lat": 35.7595451
			},
			"formatted_address": "日本、〒178-0062 東京都練馬区大泉町５丁目４−３２",
			"place_id": "ChIJB-s0e7HuGGARnW8qsH4LPNg",
			"plus_code": {
				"compound_code": "QH5W+RG 日本、東京都練馬区",
				"global_code": "8Q7XQH5W+RG"
			}
		},
		"related_page": "http://www.ooizumi-n-j.nerima-tky.ed.jp/"
	}, {
		"name": "大泉学園中学校",
		"address": "大泉学園町4丁目17番32号",
		"call_number": "03-3925-4492",
		"capacity": null,
		"geo": {
			"coordinate": {
				"lng": 139.5899659,
				"lat": 35.766777
			},
			"formatted_address": "日本、〒178-0061 東京都練馬区大泉学園町４丁目１７−３２",
			"place_id": "ChIJ_USi8EnpGGARyNN-B1YT1LU",
			"plus_code": {
				"compound_code": "QH8Q+PX 日本、東京都練馬区",
				"global_code": "8Q7XQH8Q+PX"
			}
		},
		"related_page": "http://www.gakuen-j.nerima-tky.ed.jp/"
	}, {
		"name": "関中学校",
		"address": "関町北4丁目34番23号",
		"call_number": "03-3929-0048",
		"capacity": null,
		"geo": {
			"coordinate": {
				"lng": 139.5757311,
				"lat": 35.731005
			},
			"formatted_address": "日本、〒177-0051 東京都練馬区関町北４丁目３４−２３",
			"place_id": "ChIJp-YhXeTuGGARAa85X-AgClI",
			"plus_code": {
				"compound_code": "PHJG+C7 日本、東京都練馬区",
				"global_code": "8Q7XPHJG+C7"
			}
		},
		"related_page": "http://www.seki-j.nerima-tky.ed.jp/"
	}, {
		"name": "八坂中学校",
		"address": "土支田4丁目47番21号",
		"call_number": "03-3924-0399",
		"capacity": null,
		"geo": {
			"coordinate": {
				"lng": 139.6121019,
				"lat": 35.7697635
			},
			"formatted_address": "日本、〒179-0076 東京都練馬区土支田４丁目４７−２１",
			"place_id": "ChIJrdaXigDsGGARk53vsj3SX4c",
			"plus_code": {
				"compound_code": "QJ96+WR 日本、東京都練馬区",
				"global_code": "8Q7XQJ96+WR"
			}
		},
		"related_page": "http://www.yasaka-j.nerima-tky.ed.jp/"
	}]
}