{"shelters": [{"name": "要小学校", "address": "要町2-3-20", "area": "toshima", "call_number": "", "capacity": null, "geo": {"coordinate": {"lng": 139.6937761, "lat": 35.7344113}, "formatted_address": "日本、〒171-0043 東京都豊島区要町２丁目３−２０", "place_id": "ChIJE8ludquSGGARBLmPXtEILsg", "plus_code": {"compound_code": "PMMV+QG 日本、東京都豊島区", "global_code": "8Q7XPMMV+QG"}}, "related_page": ""}, {"name": "高松小学校", "address": "高松2-57-22", "area": "toshima", "call_number": "", "capacity": null, "geo": {"coordinate": {"lng": 139.6968787, "lat": 35.7395572}, "formatted_address": "日本、〒171-0042 東京都豊島区高松２丁目５７−２２", "place_id": "ChIJPyJsba6SGGAR1HFil-JFJk8", "plus_code": {"compound_code": "PMQW+RQ 日本、東京都豊島区", "global_code": "8Q7XPMQW+RQ"}}, "related_page": ""}, {"name": "千川中学校", "address": "高松1-9-21", "area": "toshima", "call_number": "", "capacity": null, "geo": {"coordinate": {"lng": 139.6996213, "lat": 35.7358525}, "formatted_address": "日本、〒171-0042 東京都豊島区高松１丁目９−２１", "place_id": "ChIJb4JWk6iSGGARGyhblIMdoOQ", "plus_code": {"compound_code": "PMPX+8R 日本、東京都豊島区", "global_code": "8Q7XPMPX+8R"}}, "related_page": ""}, {"name": "仰高小学校", "address": "駒込5-1-19", "area": "toshima", "call_number": "", "capacity": null, "geo": {"coordinate": {"lng": 139.7381612, "lat": 35.7363618}, "formatted_address": "日本、〒170-0003 東京都豊島区駒込５丁目１−１９", "place_id": "ChIJE09on5uNGGARC9L9dyKohY0", "plus_code": {"compound_code": "PPPQ+G7 日本、東京都豊島区", "global_code": "8Q7XPPPQ+G7"}}, "related_page": ""}, {"name": "駒込小学校", "address": "駒込3-13-1", "area": "toshima", "call_number": "", "capacity": null, "geo": {"coordinate": {"lng": 139.743513, "lat": 35.7383633}, "formatted_address": "日本、〒170-0003 東京都豊島区駒込３丁目１３−１", "place_id": "ChIJrZDxi5CNGGARphbLiUP5PYs", "plus_code": {"compound_code": "PPQV+8C 日本、東京都豊島区", "global_code": "8Q7XPPQV+8C"}}, "related_page": ""}, {"name": "駒込中学校", "address": "駒込4-5-1", "area": "toshima", "call_number": "", "capacity": null, "geo": {"coordinate": {"lng": 139.7418296, "lat": 35.7358565}, "formatted_address": "日本、〒170-0003 東京都豊島区駒込４丁目５−１", "place_id": "ChIJDae9AZqNGGARUc-xkEbEH30", "plus_code": {"compound_code": "PPPR+8P 日本、東京都豊島区", "global_code": "8Q7XPPPR+8P"}}, "related_page": ""}, {"name": "旧文成小学校", "address": "池袋本町4-36-1", "area": "toshima", "call_number": "", "capacity": null, "geo": {"coordinate": {"lng": 139.7142745, "lat": 35.7441967}, "formatted_address": "日本、〒170-0011 東京都豊島区池袋本町４丁目３６", "place_id": "ChIJsT1vIZmSGGARP56ZMt1eK0w", "plus_code": {}}, "related_page": ""}, {"name": "池袋本町小学校,池袋中学校", "address": "池袋本町1-43-1", "area": "toshima", "call_number": "", "capacity": null, "geo": {"coordinate": {"lng": 139.7146735, "lat": 35.7405593}, "formatted_address": "日本、〒170-0011 東京都豊島区池袋本町１丁目４３−１", "place_id": "ChIJe5AGAJ-SGGARZ0mrDH3XY-c", "plus_code": {}}, "related_page": ""}, {"name": "巣鴨小学校", "address": "南大塚1-24-10", "area": "toshima", "call_number": "", "capacity": null, "geo": {"coordinate": {"lng": 139.7349173, "lat": 35.7284583}, "formatted_address": "日本、〒170-0005 東京都豊島区南大塚１丁目２４−１０", "place_id": "ChIJX4OS1aGNGGARYvupy0wAKxs", "plus_code": {"compound_code": "PPHM+9X 日本、東京都豊島区", "global_code": "8Q7XPPHM+9X"}}, "related_page": ""}, {"name": "西巣鴨中学校", "address": "南大塚3-18-1", "area": "toshima", "call_number": "", "capacity": null, "geo": {"coordinate": {"lng": 139.727641, "lat": 35.7287721}, "formatted_address": "日本、〒170-0005 東京都豊島区南大塚３丁目１８−１", "place_id": "ChIJ5RaMcnSNGGARIT5p8EMb7sA", "plus_code": {"compound_code": "PPHH+G3 日本、東京都豊島区", "global_code": "8Q7XPPHH+G3"}}, "related_page": ""}, {"name": "清和小学校", "address": "巣鴨3-14-1", "area": "toshima", "call_number": "", "capacity": null, "geo": {"coordinate": {"lng": 139.7329248, "lat": 35.735878}, "formatted_address": "日本、〒170-0002 東京都豊島区巣鴨３丁目１４−１", "place_id": "ChIJj8J_QZ2NGGARZkrDFx4gG9k", "plus_code": {"compound_code": "PPPM+95 日本、東京都豊島区", "global_code": "8Q7XPPPM+95"}}, "related_page": ""}, {"name": "西巣鴨小学校", "address": "西巣鴨1-27-1", "area": "toshima", "call_number": "", "capacity": null, "geo": {"coordinate": {"lng": 139.7259881, "lat": 35.7385231}, "formatted_address": "日本、〒170-0001 東京都豊島区西巣鴨１丁目２７−１", "place_id": "ChIJtfUg9HuNGGAR1w34giZl8HI", "plus_code": {"compound_code": "PPQG+C9 日本、東京都豊島区", "global_code": "8Q7XPPQG+C9"}}, "related_page": ""}, {"name": "朝日小学校", "address": "巣鴨5-33-1", "area": "toshima", "call_number": "", "capacity": null, "geo": {"coordinate": {"lng": 139.7329349, "lat": 35.7410374}, "formatted_address": "日本、〒170-0002 東京都豊島区巣鴨５丁目３３−１", "place_id": "ChIJA-J_GYKNGGARkuzaD0Z7_A0", "plus_code": {"compound_code": "PPRM+C5 日本、東京都豊島区", "global_code": "8Q7XPPRM+C5"}}, "related_page": ""}, {"name": "巣鴨北中学校", "address": "西巣鴨3-17-1", "area": "toshima", "call_number": "", "capacity": null, "geo": {"coordinate": {"lng": 139.7294999, "lat": 35.7416179}, "formatted_address": "日本、〒170-0001 東京都豊島区西巣鴨３丁目１７−１", "place_id": "ChIJPUWXBFeNGGAR77Ut-VDaedc", "plus_code": {"compound_code": "PPRH+JQ 日本、東京都豊島区", "global_code": "8Q7XPPRH+JQ"}}, "related_page": ""}, {"name": "豊成小学校", "address": "上池袋1-18-24", "area": "toshima", "call_number": "", "capacity": null, "geo": {"coordinate": {"lng": 139.7219349, "lat": 35.7349399}, "formatted_address": "日本、〒170-0012 東京都豊島区上池袋１丁目１８−２４", "place_id": "ChIJ2eAEK3uNGGARcu5j0CK3XtU", "plus_code": {"compound_code": "PPMC+XQ 日本、東京都豊島区", "global_code": "8Q7XPPMC+XQ"}}, "related_page": ""}, {"name": "朋有小学校", "address": "東池袋4-40-1", "area": "toshima", "call_number": "", "capacity": null, "geo": {"coordinate": {"lng": 139.7234142, "lat": 35.7289323}, "formatted_address": "日本、〒170-0013 東京都豊島区東池袋４丁目４０−１", "place_id": "ChIJG3VfjnGNGGARisdO9i3qxHM", "plus_code": {"compound_code": "PPHF+H9 日本、東京都豊島区", "global_code": "8Q7XPPHF+H9"}}, "related_page": ""}, {"name": "池袋第一小学校", "address": "上池袋4-28-1", "area": "toshima", "call_number": "", "capacity": null, "geo": {"coordinate": {"lng": 139.7187129, "lat": 35.7415496}, "formatted_address": "日本、〒170-0012 東京都豊島区上池袋４丁目２８−１", "place_id": "ChIJGQR1n52SGGAR6UMISmh6ScU", "plus_code": {"compound_code": "PPR9+JF 日本、東京都豊島区", "global_code": "8Q7XPPR9+JF"}}, "related_page": ""}, {"name": "みらい館大明", "address": "池袋3-30-8", "area": "toshima", "call_number": "", "capacity": null, "geo": {"coordinate": {"lng": 139.7043886, "lat": 35.735551}, "formatted_address": "日本、〒171-0014 東京都豊島区池袋３丁目３０−８", "place_id": "ChIJ16FocqeSGGARY1EzjCb2BsA", "plus_code": {"compound_code": "PPP3+6Q 日本、東京都豊島区", "global_code": "8Q7XPPP3+6Q"}}, "related_page": ""}, {"name": "池袋小学校", "address": "池袋4-23-8", "area": "toshima", "call_number": "", "capacity": null, "geo": {"coordinate": {"lng": 139.7099005, "lat": 35.737891}, "formatted_address": "日本、〒171-0014 東京都豊島区池袋４丁目２３−８", "place_id": "ChIJIfW3QqCSGGARAWcyFCMIcdw", "plus_code": {"compound_code": "PPQ5+5X 日本、東京都豊島区", "global_code": "8Q7XPPQ5+5X"}}, "related_page": ""}, {"name": "西池袋中学校", "address": "西池袋4-7-1", "area": "toshima", "call_number": "", "capacity": null, "geo": {"coordinate": {"lng": 139.6999269, "lat": 35.7275036}, "formatted_address": "日本、〒171-0021 東京都豊島区西池袋４丁目７−１", "place_id": "ChIJ84pEyFCNGGAROGxQJTKQcWM", "plus_code": {"compound_code": "PMHX+2X 日本、東京都豊島区", "global_code": "8Q7XPMHX+2X"}}, "related_page": ""}, {"name": "池袋第三小学校", "address": "西池袋3-14-3", "area": "toshima", "call_number": "", "capacity": null, "geo": {"coordinate": {"lng": 139.702796, "lat": 35.7284449}, "formatted_address": "日本、〒171-0021 東京都豊島区西池袋３丁目１４−３", "place_id": "ChIJlbF0OVqNGGARR7tnCDCIaAg", "plus_code": {"compound_code": "PPH3+94 日本、東京都豊島区", "global_code": "8Q7XPPH3+94"}}, "related_page": ""}, {"name": "南池袋小学校", "address": "南池袋3-18-12", "area": "toshima", "call_number": "", "capacity": null, "geo": {"coordinate": {"lng": 139.7145593, "lat": 35.7241902}, "formatted_address": "日本、〒171-0022 東京都豊島区南池袋３丁目１８−１２", "place_id": "ChIJQ7xmxWuNGGARyf-KBZNpWd8", "plus_code": {"compound_code": "PPF7+MR 日本、東京都豊島区", "global_code": "8Q7XPPF7+MR"}}, "related_page": ""}, {"name": "高南小学校", "address": "高田2-12-7", "area": "toshima", "call_number": "", "capacity": null, "geo": {"coordinate": {"lng": 139.7137782, "lat": 35.7165385}, "formatted_address": "日本、〒171-0033 東京都豊島区高田２丁目１２−７", "place_id": "ChIJqfqGyRWNGGAR3SZBr3Mobhg", "plus_code": {"compound_code": "PP87+JG 日本、東京都豊島区", "global_code": "8Q7XPP87+JG"}}, "related_page": ""}, {"name": "千登世橋中学校", "address": "目白1-1-1", "area": "toshima", "call_number": "", "capacity": null, "geo": {"coordinate": {"lng": 139.7115566, "lat": 35.7172114}, "formatted_address": "日本、〒171-0031 東京都豊島区目白１丁目１−１", "place_id": "ChIJ9fTBmhWNGGARGVwhZNson1c", "plus_code": {"compound_code": "PP86+VJ 日本、東京都豊島区", "global_code": "8Q7XPP86+VJ"}}, "related_page": ""}, {"name": "長崎小学校", "address": "長崎2-6-3", "area": "toshima", "call_number": "", "capacity": null, "geo": {"coordinate": {"lng": 139.689853, "lat": 35.7284647}, "formatted_address": "日本、〒171-0051 東京都豊島区長崎２丁目６−３", "place_id": "ChIJWSL-o6ryGGARN8Cil6pTBDA", "plus_code": {"compound_code": "PMHQ+9W 日本、東京都豊島区", "global_code": "8Q7XPMHQ+9W"}}, "related_page": ""}, {"name": "富士見台小学校", "address": "南長崎1-10-5", "area": "toshima", "call_number": "", "capacity": null, "geo": {"coordinate": {"lng": 139.69317, "lat": 35.7247097}, "formatted_address": "日本、〒171-0052 東京都豊島区南長崎１丁目１０−５", "place_id": "ChIJeSBOblONGGARwQqNz4-5Qwg", "plus_code": {"compound_code": "PMFV+V7 日本、東京都豊島区", "global_code": "8Q7XPMFV+V7"}}, "related_page": ""}, {"name": "旧真和中学校", "address": "目白5-24-12", "area": "toshima", "call_number": "", "capacity": null, "geo": {"coordinate": {"lng": 139.6969607, "lat": 35.725414}, "formatted_address": "日本、〒171-0031 東京都豊島区目白５丁目２４−１２", "place_id": "ChIJXxG3b1GNGGARP0jfz22em3o", "plus_code": {}}, "related_page": ""}, {"name": "椎名町小学校", "address": "南長崎4-30-5", "area": "toshima", "call_number": "", "capacity": null, "geo": {"coordinate": {"lng": 139.6853814, "lat": 35.7265523}, "formatted_address": "日本、〒171-0052 東京都豊島区南長崎４丁目３０−５", "place_id": "ChIJz8Y_-anyGGARxKgjOcy7ie0", "plus_code": {"compound_code": "PMGP+J5 日本、東京都豊島区", "global_code": "8Q7XPMGP+J5"}}, "related_page": ""}, {"name": "南長崎スポーツ公園", "address": "南長崎4-13-5", "area": "toshima", "call_number": "", "capacity": null, "geo": {"coordinate": {"lng": 139.6832238, "lat": 35.724853}, "formatted_address": "日本、〒171-0052 東京都豊島区南長崎４丁目１３−５", "place_id": "ChIJ8S9RS6jyGGARhrT3E3JRKHc", "plus_code": {"compound_code": "PMFM+W7 日本、東京都豊島区", "global_code": "8Q7XPMFM+W7"}}, "related_page": ""}, {"name": "千早小学校", "address": "千早3-33-5", "area": "toshima", "call_number": "", "capacity": null, "geo": {"coordinate": {"lng": 139.6867763, "lat": 35.7347815}, "formatted_address": "日本、〒171-0044 東京都豊島区千早３丁目３３−５", "place_id": "ChIJZZStN1LtGGARoEfMnqyt5fc", "plus_code": {"compound_code": "PMMP+WP 日本、東京都豊島区", "global_code": "8Q7XPMMP+WP"}}, "related_page": ""}, {"name": "豊島体育館", "address": "要町3-47-8", "area": "toshima", "call_number": "", "capacity": null, "geo": {"coordinate": {"lng": 139.6895702, "lat": 35.7399822}, "formatted_address": "日本、〒171-0043 東京都豊島区要町３丁目４７−８", "place_id": "ChIJL2Z5Hk3tGGARnrtHp7pTXFo", "plus_code": {"compound_code": "PMQQ+XR 日本、東京都豊島区", "global_code": "8Q7XPMQQ+XR"}}, "related_page": ""}, {"name": "さくら小学校", "address": "長崎6-16-1", "area": "toshima", "call_number": "", "capacity": null, "geo": {"coordinate": {"lng": 139.6797174, "lat": 35.7358511}, "formatted_address": "日本、〒171-0051 東京都豊島区長崎６丁目１６−１", "place_id": "ChIJC28BdEXtGGARS_wP0-TgfgE", "plus_code": {"compound_code": "PMPH+8V 日本、東京都豊島区", "global_code": "8Q7XPMPH+8V"}}, "related_page": ""}, {"name": "明豊中学校", "address": "長崎5-31-29", "area": "toshima", "call_number": "", "capacity": null, "geo": {"coordinate": {"lng": 139.6842764, "lat": 35.7358179}, "formatted_address": "日本、〒171-0051 東京都豊島区長崎５丁目３１−２９", "place_id": "ChIJ14WYJ07tGGARYIPYeXBOOiY", "plus_code": {"compound_code": "PMPM+8P 日本、東京都豊島区", "global_code": "8Q7XPMPM+8P"}}, "related_page": ""}, {"name": "西部区民事務所", "address": "千早2-39-16", "area": "toshima", "call_number": "", "capacity": null, "geo": {"coordinate": {"lng": 139.6909711, "lat": 35.7357741}, "formatted_address": "日本、〒171-0044 東京都豊島区千早２丁目３９−１６", "place_id": "ChIJ0choLFPtGGARFQr1iCgmgM8", "plus_code": {"compound_code": "PMPR+89 日本、東京都豊島区", "global_code": "8Q7XPMPR+89"}}, "related_page": ""}]}